stop_id,stop_code,stop_name,stop_lat,stop_lon,location_type,parent_station
de:09263:2600,,Straubing Bahnhof,48.8774633,12.5744017,,
de:09273:1066:0:1,,Bad Abbach Stinkelbrunnstr.,48.9305536,12.0387812,,
de:09273:11509,,Painten Schule,48.9990488,11.8099803,,
de:09273:11509:0:1,,Painten Schule,48.9990664,11.8100522,,
de:09273:1551:0:1,,Bad Abbach Abzw. Oberndorf,48.9387857,12.041557,,
de:09273:1551:0:2,,Bad Abbach Abzw. Oberndorf,48.9388034,12.0414672,,
de:09273:1555:0:2,,Bad Abbach Heidfeld,48.9374463,12.0639969,,
de:09273:15973:0:1,,Bad Abbach Römerstr. Abzw. Finkenstr.,48.9348203,12.0529387,,
de:09273:1672:0:1,,Bad Abbach Unterführung,48.9388802,12.0409462,,
de:09273:1672:0:2,,Bad Abbach Unterführung,48.939128,12.0409282,,
de:09273:1722:0:1,,Peising Paul-Kropf-Straße,48.9219954,12.0657486,,
de:09273:1723:0:2,,Peising Keltenstraße,48.919652,12.0647156,,
de:09273:1884:0:1,,Bad Abbach Shopping Center,48.9356819,12.0556695,,
de:09273:1885:0:1,,Bad Abbach Hebbergring,48.9346846,12.0470547,,
de:09273:1885:0:2,,Bad Abbach Hebbergring,48.9346492,12.0468661,,
de:09273:1886:0:1,,Oberndorf Gh. Vocht,48.9451758,12.0249831,,
de:09273:1886:0:2,,Oberndorf Gh. Vocht,48.9454944,12.0247226,,
de:09273:1887:0:1,,Oberndorf Flußmeisterei,48.9422021,12.0321966,,
de:09273:1887:0:2,,Oberndorf Flußmeisterei,48.9424087,12.0322954,,
de:09273:1890:0:1,,Bad Abbach Abzw. Heidfeld,48.9362071,12.0612391,,
de:09273:2292:0:1,,Peising Heckbergweg,48.9208266,12.0521302,,
de:09273:2292:0:2,,Peising Heckbergweg,48.9209152,12.052238,,
de:09273:2293:0:1,,Bad Abbach Fuchsweg,48.9247873,12.0467493,,
de:09273:2293:0:2,,Bad Abbach Fuchsweg,48.9249821,12.0471266,,
de:09273:245:0:1,,Bad Abbach Sportplatz,48.9393168,12.0467044,,
de:09273:245:0:2,,Bad Abbach Sportplatz,48.9393522,12.0466684,,
de:09273:246:0:1,,Bad Abbach Am Markt,48.9363133,12.0416289,,
de:09273:246:0:2,,Bad Abbach Am Markt,48.9366378,12.0405239,,
de:09273:293:0:1,,Abzw. Maierhofen,48.9887457,11.7890765,,
de:09273:3536:0:1,,Niederleierndorf Feuerwehrhaus,48.8308514,12.0876316,,
de:09273:3536:0:2,,Niederleierndorf Feuerwehrhaus,48.8308868,12.0875148,,
de:09273:3539:0:1,,Langquaid Leierndorfer Str.,48.8243225,12.0562445,,
de:09273:3539:0:2,,Langquaid Leierndorfer Str.,48.8244112,12.0561456,,
de:09273:3540:0:1,,Langquaid Marktplatz,48.821312,12.0509264,,
de:09273:3540:0:2,,Langquaid Marktplatz,48.8213534,12.0507647,,
de:09273:3541:0:1,,Langquaid Rottenburger Str.,48.8183251,12.0484201,,
de:09273:3541:0:2,,Langquaid Rottenburger Str.,48.8184079,12.0482495,,
de:09273:3542:0:1,,Langquaid Wendeplatz,48.8164973,12.0450155,,
de:09273:3988:0:1,,Bad Abbach Kühberg,48.9408569,12.0473062,,
de:09273:3988:0:2,,Bad Abbach Kühberg,48.9407801,12.0475039,,
de:09273:3989:0:1,,Lengfeld Deutenhof,48.9142504,12.0011688,,
de:09273:731,,Painten Marktplatz,48.9974103,11.8129358,,
de:09273:731:0:1,,Painten Marktplatz,48.997375,11.8129986,,
de:09273:751:0:1,,Oberndorf Kirche,48.9473352,12.0184703,,
de:09273:754:0:1,,Peising Feuerwehr,48.9202541,12.0589035,,
de:09273:754:0:2,,Peising Feuerwehr,48.9203544,12.0588496,,
de:09273:757:0:1,,Bad Abbach Frauenbrünnlstr.,48.9289601,12.042653,,
de:09273:758:0:1,,Lengfeld Teugner Straße,48.9188432,12.007457,,
de:09273:758:0:2,,Lengfeld Teugner Straße,48.9189554,12.0075378,,
de:09273:761:0:1,,Teugn Lengfelder Str. Bstg 1,48.8953612,12.0115892,,
de:09273:761:0:2,,Teugn Lengfelder Str. Bstg 2,48.8954616,12.0119396,,
de:09273:762:0:1,,Teugn Lindenstraße,48.8929338,12.0163862,,
de:09273:762:0:2,,Teugn Lindenstraße,48.8929634,12.0162964,,
de:09273:764:0:1,,Bad Abbach Neues Rathaus,48.9347377,12.0503964,,
de:09273:764:0:2,,Bad Abbach Neues Rathaus,48.9346905,12.0507827,,
de:09273:779:0:1,,Dünzling,48.8846114,12.1115448,,
de:09273:779:0:2,,Dünzling,48.8844932,12.1111495,,
de:09273:781:0:1,,Teugn Grundschule,48.8937075,12.0139787,,
de:09273:781:0:2,,Teugn Grundschule,48.8936839,12.0142303,,
de:09273:804:0:1,,Paring,48.8506162,12.0937312,,
de:09273:80513:0:2,,Saalhaupt Obere Dorfstraße,48.8891951,12.0626674,,
de:09273:806:0:1,,Oberleierndorf,48.828616,12.0736358,,
de:09273:806:0:2,,Oberleierndorf,48.8286574,12.0734741,,
de:09273:80657,,Abzw. Prexlhof,48.9946814,11.7856809,,
de:09273:80657:0:1,,Abzw. Prexlhof,48.9946166,11.7857258,,
de:09273:80785:0:1,,Painten Kindergarten,48.9970095,11.8150558,,
de:09273:80785:0:2,,Painten Kindergarten,48.9969801,11.8151187,,
de:09273:81059:0:1,,Bad Abbach Kaiser-Therme,48.9270537,12.0406317,,
de:09273:81060,,Abzw. Maierhofen,48.9886514,11.7890855,,
de:09273:81061:0:1,,Teufelsmühle (Bad Abbach),48.8949537,12.1163777,,
de:09273:872:0:1,,Niederleierndorf Weinbergstr.,48.8292902,12.0813883,,
de:09273:872:0:2,,Niederleierndorf Weinbergstr.,48.8294084,12.0818105,,
de:09274:3554:0:1,,Oberroning Kloster,48.7409867,12.0890779,,
de:09278:1643:0:1,,Upfkofen,48.8286574,12.242564,,
de:09278:1643:0:2,,Upfkofen,48.8286574,12.2426359,,
de:09278:232:0:1,,Hörgelsdorf,48.8022812,12.2010798,,
de:09278:232:0:2,,Hörgelsdorf,48.8023403,12.2012146,,
de:09278:2823:0:1,,Allkofen Abzw. Inkofen,48.8383609,12.2699896,,
de:09278:2979:0:1,,Mallersdorf Marienbrunnen,48.7764061,12.2519694,,
de:09278:2979:0:2,,Mallersdorf Marienbrunnen,48.7764416,12.2523557,,
de:09278:3516:0:1,,Pfaffenberg Gymnasium,48.7724514,12.239393,,
de:09278:3517:0:1,,Mallersdorf Förderschule,48.7703201,12.255401,,
de:09278:3522:0:1,,Steinrain B 15,48.7674307,12.1978279,,
de:09278:3525:0:1,,Winisau,48.7957604,12.1721631,,
de:09278:3525:0:2,,Winisau,48.7957959,12.1723068,,
de:09278:527:0:1,,Dürnhart Nord,48.8993002,12.4387741,,
de:09278:527:0:2,,Dürnhart Nord,48.8992766,12.4386303,,
de:09278:528:0:1,,Dürnhart Ortsmitte,48.8968494,12.4429153,,
de:09278:528:0:2,,Dürnhart Ortsmitte,48.8967963,12.4430141,,
de:09278:565:0:1,,"Bachhof, Bachhof",48.9396236,12.549707,,
de:09278:565:0:2,,"Bachhof, Bachhof",48.9396236,12.549707,,
de:09278:922:0:1,,Stofflach,48.7992102,12.2080238,,
de:09278:922:0:2,,Stofflach,48.7991274,12.2085987,,
de:09362:10:0:1,,"Regensburg, Prüfening Bahnhof",49.011412,12.0496059,,
de:09362:10284:0:0,,Regensburg Schule Napoleonstein,48.9964732,12.1107183,,
de:09362:10339:30:2,,Burgweinting Bahnhof Bstg 3,48.9896889,12.146597,0,de:09362:10339_Parent
de:09362:10339:30:3,,Burgweinting Bahnhof Bstg 1,48.989795,12.1467318,0,de:09362:10339_Parent
de:09362:10339:31:1,,Burgweinting Bahnhof Bstg 2,48.9904846,12.1470462,0,de:09362:10339_Parent
de:09362:10339:31:4,,Burgweinting Bahnhof Bstg 4,48.9905966,12.1469384,0,de:09362:10339_Parent
de:09362:10339_Parent,,Burgweinting Bahnhof,48.9903314,12.1468665,1,
de:09362:10340:0:1,,Regenburg Rudolf-Schlichtinger-Straße,48.9881032,12.1461209,,
de:09362:10340:0:2,,Regenburg Rudolf-Schlichtinger-Straße,48.9881562,12.1463275,,
de:09362:11:0:1,,"Regensburg, Hoppestraße",49.0135744,12.0819183,,
de:09362:11:0:2,,"Regensburg, Hoppestraße",49.0134919,12.0819632,,
de:09362:11000:0:1,,Rgbg. Abzw. Hint. Keilbergstr.,49.0465697,12.148223,,
de:09362:11000:0:2,,Rgbg. Abzw. Hint. Keilbergstr.,49.0462694,12.1484835,,
de:09362:11001:0:0,,Altes Rathaus,49.0201316,12.0950607,,
de:09362:11010:1:1,,Arnulfsplatz Bstg 1,49.0197428,12.0895989,0,de:09362:11010_Parent
de:09362:11010:1:5,,Arnulfsplatz Bstg 5,49.0198429,12.090066,0,de:09362:11010_Parent
de:09362:11010:2:2,,Arnulfsplatz Bstg 3,49.0197781,12.0893564,0,de:09362:11010_Parent
de:09362:11010:2:3,,Arnulfsplatz Bstg 4,49.0197251,12.0894103,0,de:09362:11010_Parent
de:09362:11010:2:4,,Arnulfsplatz Bstg 2,49.0198959,12.0893294,0,de:09362:11010_Parent
de:09362:11010_Parent,,Arnulfsplatz,49.0198606,12.0897696,1,
de:09362:11011:0:1,,Regensburg Justizgebäude Bstg 1,49.0130735,12.0882065,0,de:09362:11011_Parent
de:09362:11011:0:2,,Regensburg Justizgebäude Bstg 2,49.0134329,12.0884401,0,de:09362:11011_Parent
de:09362:11011:0:3,,Regensburg Justizgebäude Bstg 3,49.0126022,12.0891498,0,de:09362:11011_Parent
de:09362:11011:0:4,,Regensburg Justizgebäude Bstg 4,49.0137158,12.0889431,0,de:09362:11011_Parent
de:09362:11011_Parent,,Regensburg Justizgebäude,49.0132444,12.0883592,1,
de:09362:11020:0:1,,Regensburg Bismarckplatz,49.0181993,12.0891587,,
de:09362:11020:0:2,,Regensburg Bismarckplatz,49.018429,12.0891767,,
de:09362:11020:0:4,,Regensburg Bismarckplatz,49.018647,12.0895989,,
de:09362:11030:1:1,,Regensburg Dachauplatz Bstg 1,49.0167559,12.101816,0,de:09362:11030_Parent
de:09362:11030:2:2,,Regensburg Dachauplatz Bstg 2,49.0177397,12.101825,0,de:09362:11030_Parent
de:09362:11030:2:3,,Regensburg Dachauplatz Bstg 3,49.0178104,12.101807,0,de:09362:11030_Parent
de:09362:11030:3:4,,Regensburg Dachauplatz Bstg 4,49.0176042,12.1016274,0,de:09362:11030_Parent
de:09362:11030:4:5,,Regensburg Dachauplatz Bstg 5,49.0167559,12.1016274,0,de:09362:11030_Parent
de:09362:11030:4:6,,Regensburg Dachauplatz Bstg 6,49.0166557,12.1017082,0,de:09362:11030_Parent
de:09362:11030_Parent,,Regensburg Dachauplatz,49.0172684,12.1018519,1,
de:09362:11040:0:1,,Regensburg Domplatz,49.019189,12.0982587,,
de:09362:11040:0:2,,Regensburg Domplatz,49.0190005,12.0995522,,
de:09362:11049:0:3,,Regensburg Wöhrdstraße,49.0214512,12.1095056,,
de:09362:11049:0:4,,Regensburg Wöhrdstraße,49.0215277,12.1090115,,
de:09362:11050:0:1,,Regensburg Eiserne Brücke,49.0216986,12.1028311,,
de:09362:11050:0:2,,Regensburg Eiserne Brücke,49.0217575,12.1027233,,
de:09362:11052:1:2,,Regensburg Ernst-Reuter-Platz Bstg 2,49.0142519,12.1001451,,
de:09362:11052:2:1,,Regensburg Ernst-Reuter-Platz Bstg 1,49.0145995,12.1008458,,
de:09362:11060:0:1,,Regensburg Fischmarkt Bstg 1,49.0210447,12.0949529,,
de:09362:11060:0:2,,Regensburg Fischmarkt Bstg 2,49.0210859,12.0946744,,
de:09362:11065:0:1,,Regensburg Gabelsbergerstraße,49.016968,12.1070262,,
de:09362:11065:0:3,,Regensburg Gabelsbergerstraße,49.0171035,12.1070981,,
de:09362:11070:0:0,,Regensburg Gutenbergplatz,49.0184113,12.0931922,,
de:09362:11080:0:0,,Regensburg Haidplatz,49.0196956,12.0925993,,
de:09362:11090:2:10,,Regensburg Hauptbahnhof Bstg 4,49.012667,12.0999206,0,de:09362:11090_Parent
de:09362:11090:2:12,,Regensburg Hauptbahnhof Bstg 6,49.0126493,12.1008009,0,de:09362:11090_Parent
de:09362:11090:2:13,,Regensburg Hauptbahnhof Bstg 5,49.0125963,12.1004595,0,de:09362:11090_Parent
de:09362:11090:2:9,,Regensburg Hauptbahnhof Bstg 3,49.01272,12.0999655,0,de:09362:11090_Parent
de:09362:11090:3:11,,Regensburg Hauptbahnhof Bstg 15,49.0125315,12.1002619,0,de:09362:11090_Parent
de:09362:11090:3:18,,Regensburg Hauptbahnhof Bstg 16,49.012502,12.1004416,0,de:09362:11090_Parent
de:09362:11090:3:3,,Regensburg Hauptbahnhof Bstg 14,49.0124961,12.0988965,0,de:09362:11090_Parent
de:09362:11090:3:4,,Regensburg Hauptbahnhof Bstg 13,49.0124961,12.0988066,0,de:09362:11090_Parent
de:09362:11090:3:5,,Regensburg Hauptbahnhof Bstg 12,49.0124961,12.0986899,0,de:09362:11090_Parent
de:09362:11090:3:6,,Regensburg Hauptbahnhof Bstg 11,49.0124961,12.0986,0,de:09362:11090_Parent
de:09362:11090:5,,Regensburg Hauptbahnhof,49.0124254,12.0982946,0,de:09362:11090_Parent
de:09362:11090:5:14,,Regensburg Hauptbahnhof Bstg 1,49.012667,12.0983934,0,de:09362:11090_Parent
de:09362:11090:5:15,,Regensburg Hauptbahnhof Bstg 9,49.0125138,12.098061,0,de:09362:11090_Parent
de:09362:11090:5:2,,Regensburg Hauptbahnhof Bstg 2,49.012667,12.0988965,0,de:09362:11090_Parent
de:09362:11090_Parent,,Regensburg Hauptbahnhof,49.0125786,12.099157,1,
de:09362:11110:0:1,,Regensburg Königsstraße,49.0172861,12.1006302,,
de:09362:11110:0:2,,Regensburg Königsstraße,49.0172802,12.1004506,,
de:09362:11111:0:1,,Regensburg Am Königshof,49.015607,12.1003158,,
de:09362:11111:0:2,,Regensburg Am Königshof,49.0156247,12.1001451,,
de:09362:11121:1:12,,Regensburg Hauptbahnhof Bstg J,49.0137452,12.1000733,0,de:09362:11090_Parent
de:09362:11121:1:4,,Regensburg Hauptbahnhof Bstg B6,49.0134035,12.1012411,0,de:09362:11090_Parent
de:09362:11121:1:5,,Regensburg Hauptbahnhof Bstg B4,49.0134035,12.1007021,0,de:09362:11090_Parent
de:09362:11121:1:6,,Regensburg Hauptbahnhof Bstg B2,49.0133564,12.100217,0,de:09362:11090_Parent
de:09362:11121:2:1,,Regensburg Hauptbahnhof Bstg B1,49.0134683,12.1001182,0,de:09362:11090_Parent
de:09362:11121:2:2,,Regensburg Hauptbahnhof Bstg B3,49.0135095,12.1005134,0,de:09362:11090_Parent
de:09362:11121:2:3,,Regensburg Hauptbahnhof Bstg B5,49.0134919,12.1010884,0,de:09362:11090_Parent
de:09362:11121:3:7,,Regensburg Hauptbahnhof Bstg I,49.0131089,12.1014836,0,de:09362:11090_Parent
de:09362:11121:4:10,,Regensburg Hauptbahnhof Bstg E,49.0130971,12.0999116,0,de:09362:11090_Parent
de:09362:11121:4:9,,Regensburg Hauptbahnhof Bstg D,49.0131089,12.099696,0,de:09362:11090_Parent
de:09362:11140:0:0,,Regensburg Neupfarrplatz,49.0182464,12.0968753,,
de:09362:11151:0:0,,Regensburg Fritz-Fend-Straße,49.0125079,12.0950337,,
de:09362:11151:0:1,,Regensburg Fritz-Fend-Straße,49.0125374,12.0950337,,
de:09362:11160:0:1,,Regensburg Stadtamhof,49.0245556,12.098061,,
de:09362:11160:0:2,,Regensburg Stadtamhof,49.0246734,12.0978724,,
de:09362:11162:0:0,,Regensburg Dultplatz,49.0256983,12.0898864,,
de:09362:11162:0:2,,Regensburg Dultplatz,49.0252566,12.0907038,,
de:09362:11170:1:2,,Regensburg Stobäusplatz Bstg 4,49.0138748,12.1081042,0,de:09362:11170_Parent
de:09362:11170:2:0,,Regensburg Stobäusplatz Bstg 3,49.0135154,12.1082479,0,de:09362:11170_Parent
de:09362:11170:3:1,,Regensburg Stobäusplatz Bstg 2,49.0133976,12.1073586,0,de:09362:11170_Parent
de:09362:11170:3:3,,Regensburg Stobäusplatz Bstg 1,49.0133799,12.1074754,0,de:09362:11170_Parent
de:09362:11170_Parent,,Regensburg Stobäusplatz,49.0135508,12.1078706,1,
de:09362:11180:0:1,,Regensburg Thundorferstraße,49.0207148,12.0989863,,
de:09362:11180:0:2,,Regensburg Thundorferstraße,49.0207973,12.0988426,,
de:09362:11181:0:1,,Regensburg Keplerstraße,49.021622,12.0910182,,
de:09362:11181:0:2,,Regensburg Keplerstraße,49.0216456,12.0917818,,
de:09362:11190:1:3,,Regensburg Weißenburgstraße Bstg 1,49.0165497,12.1116346,0,de:09362:11190_Parent
de:09362:11190:1:4,,Regensburg Weißenburgstraße Bstg 2,49.0165497,12.1116346,0,de:09362:11190_Parent
de:09362:11190:2:5,,Regensburg Weißenburgstraße Bstg 4,49.017398,12.1107363,0,de:09362:11190_Parent
de:09362:11190:2:6,,Regensburg Weißenburgstraße Bstg 3,49.017398,12.1107363,0,de:09362:11190_Parent
de:09362:11190_Parent,,Regensburg Weißenburgstraße,49.0170269,12.11194,1,
de:09362:12:0:1,,"Regensburg, Dechbettener Straße",49.0134153,12.0757289,,
de:09362:12:0:2,,"Regensburg, Dechbettener Straße",49.0133446,12.0758367,,
de:09362:12001:0:1,,Rgbg. A. d. Weichser Breiten,49.0253979,12.1180126,,
de:09362:12001:0:2,,Rgbg. A. d. Weichser Breiten,49.024267,12.1177521,,
de:09362:12002:0:1,,Regensburg An der Schauergrube,49.038797,12.1521037,,
de:09362:12002:0:2,,Regensburg An der Schauergrube,49.0386262,12.1521845,,
de:09362:12003:0:1,,Regensburg Ardennenstraße,49.0469936,12.1251632,,
de:09362:12003:0:2,,Regensburg Ardennenstraße,49.047235,12.1241212,,
de:09362:12004:0:0,,Regensburg Argonnenstraße,49.0438258,12.1233935,,
de:09362:12005:0:0,,Regensburg Aussiger Straße,49.0411701,12.1224683,,
de:09362:12005:0:3,,Regensburg Aussiger Straße,49.0414528,12.1235373,,
de:09362:12006:0:0,,Regensburg Berliner Straße,49.0471173,12.1182192,,
de:09362:12007:0:1,,Regensburg Brandlberg,49.038108,12.1353052,,
de:09362:12007:0:2,,Regensburg Brandlberg,49.0379784,12.135413,,
de:09362:12009:0:0,,Regensburg Danziger Freiheit,49.0412643,12.1302746,,
de:09362:12009:0:2,,Regensburg Danziger Freiheit,49.0415411,12.1321162,,
de:09362:12014:0:1,,Regensburg Gallingkofen,49.046499,12.1027952,,
de:09362:12014:0:2,,Regensburg Gallingkofen,49.046923,12.1035408,,
de:09362:12015:0:2,,Regensburg Donaustaufer Straße Bstg 1,49.0301454,12.1142127,,
de:09362:12015:0:3,,Regensburg Donaustaufer Straße Bstg 3,49.0288555,12.1139612,,
de:09362:12015:0:4,,Regensburg Donaustaufer Straße Bstg 2,49.0292502,12.1152009,,
de:09362:12016:0:1,,Regensburg Gewerbepark/Donau-Arena,49.0292443,12.1298524,,
de:09362:12016:0:2,,Regensburg Gewerbepark/Donau-Arena,49.0291736,12.1281995,,
de:09362:12017:0:1,,Regensburg Grünthaler Straße,49.0400748,12.1438751,,
de:09362:12017:0:2,,Regensburg Grünthaler Straße,49.0399099,12.1439829,,
de:09362:12019:0:2,,Regensburg Schulzentrum Isarstraße,49.0338265,12.1177341,,
de:09362:12019:0:3,,Regensburg Schulzentrum Isarstraße,49.0339502,12.1174736,,
de:09362:12020:0:1,,Regensburg Harthof,49.0372305,12.1319814,,
de:09362:12020:0:2,,Regensburg Harthof,49.0377487,12.1325114,,
de:09362:12021:0:1,,Regensburg Harzstraße,49.041017,12.1048523,,
de:09362:12021:0:2,,Regensburg Harzstraße,49.0401867,12.1060021,,
de:09362:12022:0:0,,Haslbach,49.0625471,12.1195218,,
de:09362:12023:0:2,,Hintere Keilbergstraße,49.0458042,12.1610509,,
de:09362:12023:0:3,,Hintere Keilbergstraße,49.0457807,12.1611497,,
de:09362:12024:0:1,,Regensburg Holzgartenstraße/DEZ,49.0243907,12.1150482,,
de:09362:12025:0:1,,Regensburg Im Reichen Winkel,49.0384142,12.1144733,,
de:09362:12025:0:2,,Regensburg Im Reichen Winkel,49.0385673,12.1144194,,
de:09362:12027:0:1,,Regensburg Hollerweg,49.048548,12.1613743,,
de:09362:12027:0:2,,Regensburg Hollerweg,49.0483831,12.1616887,,
de:09362:12028:0:1,,Regensburg Schule St. Nikola,49.0338206,12.1034509,,
de:09362:12028:0:2,,Regensburg Schule St. Nikola,49.0333612,12.103397,,
de:09362:12029:0:1,,Regensburg Nabburger Straße,49.0606694,12.124211,,
de:09362:12029:0:2,,Regensburg Nabburger Straße,49.0605634,12.1240044,,
de:09362:12030:0:1,,Regensburg Kalkwerk,49.0297037,12.1352423,,
de:09362:12030:0:2,,Regensburg Kalkwerk,49.0297685,12.1350357,,
de:09362:12031:0:1,,Rgbg. Keilberger Hauptstraße,49.0385025,12.1564336,,
de:09362:12031:0:2,,Rgbg. Keilberger Hauptstraße,49.0384024,12.1569546,,
de:09362:12032:0:1,,Keilberg,49.0384377,12.1586075,,
de:09362:12032:0:2,,Keilberg,49.0384436,12.1587872,,
de:09362:12033:0:1,,Regensburg Kötztinger Straße,49.0474175,12.1112124,,
de:09362:12033:0:2,,Regensburg Kötztinger Straße,49.0478061,12.1132066,,
de:09362:12034:0:1,,Regensburg Kronacher Straße,49.0622763,12.1342991,,
de:09362:12034:0:2,,Regensburg Kronacher Straße,49.0617348,12.134892,,
de:09362:12035:0:1,,Regensburg Kulmbacher Straße,49.0584149,12.1322689,,
de:09362:12035:0:2,,Regensburg Kulmbacher Straße,49.05815,12.1319096,,
de:09362:12036:0:1,,Regensburg Lechstraße,49.0335438,12.1220371,0,de:09362:12036_Parent
de:09362:12036:0:2,,Regensburg Lechstraße,49.033161,12.123654,0,de:09362:12036_Parent
de:09362:12036:0:4,,Regensburg Lechstraße,49.0337146,12.1224952,0,de:09362:12036_Parent
de:09362:12036:0:5,,Regensburg Lechstraße,49.0330903,12.1232049,0,de:09362:12036_Parent
de:09362:12036_Parent,,Regensburg Lechstraße,49.0336145,12.1234654,1,
de:09362:12039:0:0,,Regensburg Nordgaustraße Bstg 3,49.032731,12.1138085,0,de:09362:12039_Parent
de:09362:12039:0:1,,Regensburg Nordgaustraße Bstg 1,49.0339678,12.1133593,0,de:09362:12039_Parent
de:09362:12039:0:3,,Regensburg Nordgaustraße Bstg 2,49.0335085,12.1143116,0,de:09362:12039_Parent
de:09362:12039:0:4,,Regensburg Nordgaustraße Bstg 4,49.0330844,12.1128383,0,de:09362:12039_Parent
de:09362:12039_Parent,,Regensburg Nordgaustraße,49.033373,12.1136827,1,
de:09362:12040:0:1,,Rgbg. Lichtenfelser Straße,49.0626353,12.1287565,,
de:09362:12040:0:2,,Rgbg. Lichtenfelser Straße,49.0625235,12.1287744,,
de:09362:12041:0:2,,Regensburg Loisachstraße,49.0338618,12.12793,,
de:09362:12041:0:3,,Regensburg Loisachstraße,49.0339148,12.1278132,,
de:09362:12042:0:0,,Rgbg. Mecklenburger Straße,49.0460456,12.1166651,,
de:09362:12045:0:0,,Regensburg Ostpreußenstraße,49.0425951,12.1172491,,
de:09362:12046:0:0,,Pommernstraße,49.046764,12.1205818,,
de:09362:12046:0:2,,Pommernstraße,49.0472232,12.1205638,,
de:09362:12047:0:0,,Regensburg Reinhausen Brücke,49.0309995,12.1038552,0,de:09362:12047_Parent
de:09362:12047:0:2,,Regensburg Reinhausen Brücke,49.0309288,12.1040887,0,de:09362:12047_Parent
de:09362:12047:0:3,,Regensburg Reinhausen Brücke,49.0301867,12.1030736,0,de:09362:12047_Parent
de:09362:12047:0:4,,Regensburg Reinhausen Brücke,49.0303575,12.1033611,0,de:09362:12047_Parent
de:09362:12047_Parent,,Regensburg Reinhausen Brücke,49.0303045,12.1038013,1,
de:09362:12048:0:1,,Regensburg Reinhausen Kirche Bstg 1,49.0308051,12.1085174,,
de:09362:12048:0:2,,Regensburg Reinhausen Kirche Bstg 2,49.0306873,12.1069094,,
de:09362:12051:0:2,,Regensburg Amberger Straße,49.0399747,12.101825,0,de:09362:12051_Parent
de:09362:12051:0:3,,Regensburg Amberger Straße,49.0395625,12.1017262,0,de:09362:12051_Parent
de:09362:12051:0:4,,Regensburg Amberger Straße,49.039009,12.1023819,0,de:09362:12051_Parent
de:09362:12051:0:5,,Regensburg Amberger Straße,49.0388735,12.1024089,0,de:09362:12051_Parent
de:09362:12051_Parent,,Regensburg Amberger Straße,49.0397686,12.1017711,1,
de:09362:12052:0:1,,Regensburg Fluderstraße,49.0372482,12.1024897,,
de:09362:12052:0:2,,Regensburg Fluderstraße,49.0364826,12.1024987,,
de:09362:12053:0:0,,Rgbg. Sallerner Berg,49.0405341,12.1110866,,
de:09362:12055:0:1,,Regensburg Sandgasse Bstg 1,49.0353518,12.123151,,
de:09362:12055:0:3,,Regensburg Sandgasse Bstg 3,49.0354402,12.1228635,,
de:09362:12056:0:2,,Regensburg Memeler Straße Bstg 2,49.0381374,12.1249207,,
de:09362:12056:0:3,,Regensburg Memeler Straße Bstg 3,49.0373895,12.1245344,,
de:09362:12057:0:1,,Regensburg Schlesierstraße,49.048183,12.1218125,,
de:09362:12057:0:2,,Regensburg Schlesierstraße,49.048183,12.122064,,
de:09362:12070:0:1,,Regensburg Fleischmannstraße,49.0242022,12.1527774,,
de:09362:12070:0:2,,Regensburg Fleischmannstraße,49.0244083,12.1527235,,
de:09362:12071:0:1,,Regensburg Baseball-Stadion,49.027112,12.1395093,,
de:09362:12071:0:2,,Regensburg Baseball-Stadion,49.0279484,12.1385032,,
de:09362:12072:0:1,,Schwabelweis Heyden,49.0238487,12.1581763,,
de:09362:12072:0:2,,Schwabelweis Heyden,49.0237604,12.1586614,,
de:09362:12073:0:1,,Schwabelweis Kirchstraße,49.0250092,12.1464892,,
de:09362:12073:0:2,,Schwabelweis Kirchstraße,49.025286,12.1452406,,
de:09362:12075:0:1,,Siebenbürgener Straße,49.0365827,12.1128024,,
de:09362:12075:0:2,,Siebenbürgener Straße,49.0364943,12.1128024,,
de:09362:12077:0:3,,Regensburg Spessartstraße,49.0381256,12.1079515,,
de:09362:12077:0:4,,Regensburg Spessartstraße,49.0381138,12.107664,,
de:09362:12078:0:1,,Rgbg. Sudetendeutsche Straße Bstg 1,49.0349396,12.1176533,,
de:09362:12078:0:2,,Rgbg. Sudetendeutsche Straße Bstg 2,49.0350161,12.1173658,,
de:09362:12080:0:3,,Regensburg Vilsstraße-Gewerbepark,49.0290263,12.1246422,,
de:09362:12080:0:4,,Regensburg Vilsstraße-Gewerbepark,49.0295152,12.1238876,,
de:09362:12080:0:5,,Regensburg Vilsstraße-Gewerbepark,49.0291559,12.1225761,,
de:09362:12081:1:3,,Regensburg Weichs-DEZ Bstg D,49.0248442,12.113548,0,de:09362:12081_Parent
de:09362:12081:2:0,,Regensburg Weichs-DEZ Bstg A,49.0256925,12.1140511,0,de:09362:12081_Parent
de:09362:12081:2:1,,Regensburg Weichs-DEZ Bstg B,49.0255688,12.1140331,0,de:09362:12081_Parent
de:09362:12081:2:2,,Regensburg Weichs-DEZ Bstg C,49.0254509,12.1140241,0,de:09362:12081_Parent
de:09362:12081:2:5,,Regensburg Weichs-DEZ Bstg E,49.025127,12.1144283,0,de:09362:12081_Parent
de:09362:12081_Parent,,Regensburg Weichs-DEZ,49.0249503,12.1137187,1,
de:09362:12085:0:0,,Regensburg Weichser Weg,49.0291971,12.1175185,,
de:09362:12085:0:1,,Regensburg Weichser Weg,49.0290735,12.1197464,,
de:09362:12085:0:2,,Regensburg Weichser Weg,49.028131,12.118318,,
de:09362:12086:0:1,,Regensburg Wetterstation,49.0423125,12.1026335,,
de:09362:12086:0:2,,Regensburg Wetterstation,49.0422948,12.1025436,,
de:09362:12087:0:0,,Wutzlhofen,49.0476001,12.1293404,,
de:09362:12088:0:0,,Regensburg Konradschule,49.0452037,12.1309753,,
de:09362:12099:0:2,,Regensburg Siemensstraße/Continental,49.0054488,12.1394554,,
de:09362:12099:0:3,,Regensburg Siemensstraße/Continental,49.0055667,12.1387547,,
de:09362:13001:0:1,,Harting BMW Ausbildungszentrum,48.9822315,12.1623535,,
de:09362:13001:0:2,,Harting BMW Ausbildungszentrum,48.9821785,12.1623355,,
de:09362:13002:0:0,,Harting BMW Tor 2,48.9811762,12.1712109,,
de:09362:13002:0:1,,Harting BMW Tor 2,48.9816891,12.1709863,,
de:09362:13003:0:1,,Regensburg Bukarester Straße,49.0139043,12.1462826,,
de:09362:13003:0:2,,Regensburg Bukarester Straße,49.0134624,12.1468126,,
de:09362:13003:0:3,,Regensburg Bukarester Straße,49.013704,12.1472977,,
de:09362:13009:0:2,,Harting Frachtpostzentrum,48.9996204,12.1496693,,
de:09362:13009:0:3,,Harting Frachtpostzentrum,48.9994967,12.1493818,,
de:09362:13010:0:1,,Harting Friedhof,48.9875373,12.1655964,,
de:09362:13010:0:2,,Harting Friedhof,48.9873958,12.1670696,,
de:09362:13011:0:1,,Harting Herbert-Quandt-Allee,48.9819603,12.1791789,,
de:09362:13011:0:2,,Harting Herbert-Quandt-Allee,48.9821902,12.1784962,,
de:09362:13011:0:3,,Harting Herbert-Quandt-Allee,48.9815417,12.1772835,,
de:09362:13012:0:1,,Harting Kirche,48.9861166,12.1741034,,
de:09362:13012:0:2,,Harting Kirche,48.9862639,12.171651,,
de:09362:13013:0:1,,Max-Planck-Straße,48.9893175,12.156209,,
de:09362:13013:0:2,,Max-Planck-Straße,48.9894884,12.1559575,,
de:09362:13014:0:1,,Harting Rathenaustraße,48.9945576,12.156227,,
de:09362:13014:0:2,,Harting Rathenaustraße,48.9945576,12.1559305,,
de:09362:13015:0:2,,Harting Wendeplatz,48.9857805,12.1752892,,
de:09362:13015:0:3,,Harting Wendeplatz,48.9854858,12.1757204,,
de:09362:13016:0:0,,Holzerstraße,48.9869949,12.1686147,,
de:09362:13020:0:1,,Regensburg Hohes Kreuz,49.0110879,12.134317,,
de:09362:13020:0:2,,Regensburg Hohes Kreuz,49.0118068,12.1345776,,
de:09362:13021:0:0,,A. d. Irler Höhe,49.0093615,12.1382966,,
de:09362:13022:0:1,,Regensburg Liebigstraße,49.0131737,12.1344518,,
de:09362:13022:0:2,,Regensburg Liebigstraße,49.0137393,12.1339398,,
de:09362:13022:0:3,,Regensburg Liebigstraße,49.0136451,12.134856,,
de:09362:13023:0:0,,Am Ostbahnhof,49.0061736,12.1449621,,
de:09362:13024:0:1,,Rgbg. Peter-Henlein-Straße,49.0091906,12.1453933,,
de:09362:13024:0:2,,Rgbg. Peter-Henlein-Straße,49.0091906,12.1452046,,
de:09362:13025:0:1,,Regensburg Prinz-Ludwig-Straße,49.0149295,12.1199979,,
de:09362:13025:0:2,,Regensburg Prinz-Ludwig-Straße,49.0155893,12.1181653,,
de:09362:13027:0:1,,Regensburg Kremser Straße,49.0066686,12.1439111,,
de:09362:13027:0:2,,Regensburg Kremser Straße,49.0068041,12.143956,,
de:09362:13027:0:3,,Regensburg Kremser Straße,49.0068807,12.1442794,,
de:09362:13030:0:1,,Regensburg Zuckerfabrikstraße,49.0141635,12.1242649,,
de:09362:13030:0:2,,Regensburg Zuckerfabrikstraße,49.0146879,12.1232498,,
de:09362:13040:0:1,,Junkersstraße,48.9901015,12.1514838,,
de:09362:13040:0:2,,Junkersstraße,48.9900072,12.1517084,,
de:09362:13047:0:1,,Irlmauth,49.0118598,12.1599909,,
de:09362:13047:0:2,,Irlmauth,49.0111586,12.1612845,,
de:09362:14001:0:1,,Regensburg Alfons-Auer-Straße,49.0060499,12.1084815,0,de:09362:14001_Parent
de:09362:14001:0:2,,Regensburg Alfons-Auer-Straße,49.0059615,12.1081132,0,de:09362:14001_Parent
de:09362:14001:0:3,,Regensburg Alfons-Auer-Straße,49.0058849,12.1097751,0,de:09362:14001_Parent
de:09362:14001:0:4,,Regensburg Alfons-Auer-Straße,49.0062561,12.1091552,0,de:09362:14001_Parent
de:09362:14001_Parent,,Regensburg Alfons-Auer-Straße,49.0060027,12.1082928,1,
de:09362:14002:0:0,,Dechbetten,49.0107992,12.058625,,
de:09362:14002:0:6,,Dechbetten,49.010917,12.0595592,,
de:09362:14003:0:1,,Regensburg An der Iselrinne,49.001082,12.1104129,,
de:09362:14003:0:2,,Regensburg An der Iselrinne,49.001247,12.1101613,,
de:09362:14004:0:1,,Regensburg Dechbetten-TELIS FINANZ,49.0097622,12.0587777,,
de:09362:14004:0:2,,Regensburg Dechbetten-TELIS FINANZ,49.009497,12.0579243,,
de:09362:14005:0:1,,Regensburg An der Kreuzbreite,48.9948288,12.088467,,
de:09362:14005:0:2,,Regensburg An der Kreuzbreite,48.9951058,12.0889342,,
de:09362:14006:0:1,,Regensburg Augsburger Straße,49.0057258,12.0861494,,
de:09362:14006:0:2,,Regensburg Augsburger Straße,49.005879,12.0870746,,
de:09362:14007:0:2,,Regensburg Bajuwarenstraße,49.0008286,12.1260975,,
de:09362:14007:0:3,,Regensburg Bajuwarenstraße,49.000805,12.1276426,,
de:09362:14007:0:4,,Regensburg Bajuwarenstraße,49.0018953,12.1262771,,
de:09362:14008:0:0,,Regensburg Benzstraße,48.9980822,12.1288014,0,de:09362:14008_Parent
de:09362:14008:0:1,,Regensburg Benzstraße,48.998978,12.1308765,0,de:09362:14008_Parent
de:09362:14008:0:2,,Regensburg Benzstraße,48.9982119,12.1293314,0,de:09362:14008_Parent
de:09362:14008:0:3,,Regensburg Benzstraße,48.9994613,12.1299602,0,de:09362:14008_Parent
de:09362:14008_Parent,,Regensburg Benzstraße,48.9991372,12.1304723,1,
de:09362:14009:0:1,,Regensburg Ludwig-Erhard-Straße,49.000752,12.0730969,,
de:09362:14009:0:2,,Regensburg Ludwig-Erhard-Straße,49.0005752,12.0734023,,
de:09362:14011:0:1,,Regensburg Boelckestraße,49.0015888,12.0805619,,
de:09362:14011:0:2,,Regensburg Boelckestraße,49.0010467,12.0796635,,
de:09362:14012:0:2,,Regensburg Brahmsstraße,49.0037104,12.1086701,,
de:09362:14012:0:3,,Regensburg Brahmsstraße,49.0027675,12.1090025,,
de:09362:14013:0:2,,Burgweinting Kirche,48.9924121,12.1380451,,
de:09362:14013:0:3,,Burgweinting Kirche,48.9925065,12.1378025,,
de:09362:14014:0:1,,Langer Weg,48.9833576,12.1365628,,
de:09362:14014:0:2,,Langer Weg,48.9837938,12.1355477,,
de:09362:14015:0:2,,Kurzer Weg,48.9866648,12.1390691,,
de:09362:14015:0:3,,Kurzer Weg,48.9866058,12.1388266,,
de:09362:14016:0:2,,Friedrich-Viehbacher-Allee,48.9883095,12.1410544,,
de:09362:14016:0:3,,Friedrich-Viehbacher-Allee,48.988392,12.1411622,,
de:09362:14019:0:1,,Droste-Hülshoff-Weg,48.9862698,12.134326,,
de:09362:14019:0:2,,Droste-Hülshoff-Weg,48.9863111,12.1344518,,
de:09362:14020:0:1,,Regensburg Schwalbenneststraße,49.0072638,12.0578255,,
de:09362:14020:0:2,,Regensburg Schwalbenneststraße,49.006645,12.0584274,,
de:09362:14022:0:2,,Regensburg Dr.-Gessler-Straße,49.0050658,12.0648234,,
de:09362:14022:0:3,,Regensburg Dr.-Gessler-Straße,49.0044765,12.0645539,,
de:09362:14022:0:4,,Regensburg Dr.-Gessler-Straße Bstg 4,49.0045708,12.0654612,,
de:09362:14023:0:1,,Rgbg. Evang. Zentralfriedhof,49.0101982,12.0950786,,
de:09362:14023:0:2,,Rgbg. Evang. Zentralfriedhof,49.0100214,12.0949708,,
de:09362:14024:0:1,,Regensburg Garbenstraße,48.9924416,12.1347932,,
de:09362:14024:0:2,,Regensburg Garbenstraße,48.9924534,12.1347123,,
de:09362:14025:0:1,,OTH Regensburg,49.0043822,12.0931293,,
de:09362:14025:0:2,,OTH Regensburg,49.0046002,12.0933449,,
de:09362:14026:0:1,,Rgbg. Fernsehsender Ziegetsdorf,48.9931018,12.0779567,,
de:09362:14026:0:2,,Rgbg. Fernsehsender Ziegetsdorf,48.9930252,12.0777322,,
de:09362:14027:0:2,,Regensburg Johann-Hösl-Straße Bstg 2,48.9945282,12.111931,0,de:09362:14027_Parent
de:09362:14027:0:3,,Regensburg Johann-Hösl-Straße Bstg 3,48.9956893,12.1107542,0,de:09362:14027_Parent
de:09362:14027:0:4,,Regensburg Johann-Hösl-Straße Bstg 4,48.9955007,12.1127036,0,de:09362:14027_Parent
de:09362:14027:0:6,,Regensburg Johann-Hösl-Straße Bstg 6,48.9958367,12.1156501,0,de:09362:14027_Parent
de:09362:14027_Parent,,Regensburg Johann-Hösl-Straße,48.9950704,12.1113831,1,
de:09362:14028:0:0,,Rgbg. Friedrich-Ebert-Straße,49.0058554,12.0690455,,
de:09362:14029:0:0,,Regensburg Kirche St.Paul,49.0064093,12.071417,,
de:09362:14030:0:1,,Regensburg TechCampus/OTH,49.0042231,12.0993097,,
de:09362:14030:0:2,,Regensburg TechCampus/OTH,49.0042879,12.0994444,,
de:09362:14031:0:1,,HBF Süd/Arcaden,49.0098741,12.1027233,,
de:09362:14031:0:2,,HBF Süd/Arcaden,49.0109642,12.101798,,
de:09362:14031:0:4,,HBF Süd/Arcaden,49.0106519,12.1019597,,
de:09362:14032:0:0,,Regensburg Erminoldweg,49.0106637,12.0425362,,
de:09362:14033:0:0,,Sophie-Scholl-Straße,48.983446,12.1419707,,
de:09362:14033:0:1,,Sophie-Scholl-Straße,48.9834342,12.1422851,,
de:09362:14034:0:1,,Regensburg Minervastraße,48.9907322,12.1309663,,
de:09362:14034:0:2,,Regensburg Minervastraße,48.9909385,12.1308675,,
de:09362:14035:0:1,,Regensburg Geibelplatz,48.9976932,12.0805439,,
de:09362:14035:0:2,,Regensburg Geibelplatz,48.9969388,12.0798881,,
de:09362:14036:0:1,,Graß Brunnstraße,48.9881975,12.0781005,,
de:09362:14036:0:2,,Graß Brunnstraße,48.9881267,12.07784,,
de:09362:14037:0:0,,Regensburg Graßer Weg,48.9962787,12.0796546,,
de:09362:14037:0:1,,Regensburg Graßer Weg,48.995542,12.0796096,,
de:09362:14038:0:1,,Regensburg Gutenbergstraße,49.010375,12.0870028,,
de:09362:14038:0:2,,Regensburg Gutenbergstraße,49.0097975,12.0865357,,
de:09362:14038:0:3,,Regensburg Gutenbergstraße,49.0100686,12.0855565,,
de:09362:14039:0:1,,Regensburg Franz-Hartl-Straße,48.9940802,12.1089217,,
de:09362:14039:0:2,,Regensburg Franz-Hartl-Straße,48.994316,12.1093169,,
de:09362:14040:0:1,,Regensburg Johann-Schwaebl-Straße,48.995931,12.067707,,
de:09362:14040:0:2,,Regensburg Johann-Schwaebl-Straße,48.9961196,12.0679585,,
de:09362:14041:0:1,,Regensburg Haydnstraße,49.0065861,12.0999565,,
de:09362:14041:0:2,,Regensburg Haydnstraße,49.0070045,12.099678,,
de:09362:14041:0:3,,Regensburg Haydnstraße,49.0071813,12.10019,,
de:09362:14042:0:1,,Regensburg Hermann-Geib-Straße,49.0101864,12.1114998,,
de:09362:14042:0:2,,Regensburg Hermann-Geib-Straße,49.0102277,12.111931,,
de:09362:14043:0:0,,Regensburg Hofgartenweg,49.0062384,12.0897157,,
de:09362:14044:0:0,,Humboldtstraße Bürgerhaus,48.996149,12.1069993,,
de:09362:14045:0:1,,Regensburg Kaiser-Friedrich-Allee,49.0014945,12.0711295,,
de:09362:14045:0:2,,Regensburg Kaiser-Friedrich-Allee,49.0011586,12.0715428,,
de:09362:14046:0:0,,Regensburg Karl-Stieler-Straße,48.9947875,12.0807146,,
de:09362:14046:0:3,,Regensburg Karl-Stieler-Straße,48.9948877,12.0808673,,
de:09362:14047:0:0,,Graß,48.9864054,12.0797624,,
de:09362:14047:0:1,,Graß,48.9866235,12.0797983,,
de:09362:14047:0:2,,Graß,48.9863524,12.0799061,,
de:09362:14048:0:1,,Regensburg Römerstraße,48.9901958,12.1264119,,
de:09362:14048:0:3,,Regensburg Römerstraße,48.9897832,12.1255225,,
de:09362:14050:0:1,,Regensburg Markomannenstraße,48.99543,12.119414,,
de:09362:14050:0:2,,Regensburg Markomannenstraße,48.9950528,12.1196116,,
de:09362:14051:1:0,,Regensburg Klenzestraße Bstg 1,49.0048654,12.0713002,0,de:09362:14051_Parent
de:09362:14051:1:1,,Regensburg Klenzestraße Bstg 2,49.0050363,12.0714979,0,de:09362:14051_Parent
de:09362:14051:2:3,,Regensburg Klenzestraße Bstg 4,49.0054547,12.0731777,0,de:09362:14051_Parent
de:09362:14051:2:6,,Regensburg Klenzestraße Bstg 3,49.005107,12.072495,0,de:09362:14051_Parent
de:09362:14051_Parent,,Regensburg Klenzestraße,49.0047004,12.0721626,1,
de:09362:14052:0:0,,Regensburg Klinikum,48.9887221,12.0899043,,
de:09362:14053:0:0,,Regensburg Königswiesen,49.0086721,12.0693239,,
de:09362:14054:0:2,,Regensburg Cranachweg/KÖWE,49.0061441,12.0634759,,
de:09362:14054:0:3,,Regensburg Cranachweg/KÖWE,49.0071636,12.0631705,,
de:09362:14055:0:1,,Regensburg Theodor-Heuss-Platz,48.9973867,12.0696114,,
de:09362:14055:0:2,,Regensburg Theodor-Heuss-Platz,48.9972394,12.0695575,,
de:09362:14056:0:1,,Regensburg Krankenhaus St. Josef,49.0061677,12.1179138,,
de:09362:14056:0:2,,Regensburg Krankenhaus St. Josef,49.0063386,12.1181833,,
de:09362:14057:0:0,,Am Bach,48.9831394,12.0879011,,
de:09362:14059:0:1,,Regensburg Kaulbachweg,49.0045,12.0773549,,
de:09362:14059:0:2,,Regensburg Kaulbachweg,49.0043822,12.0774806,,
de:09362:14060:0:1,,Leoprechting,48.9826501,12.0921861,,
de:09362:14060:0:2,,Leoprechting,48.9831217,12.0894821,,
de:09362:14061:0:1,,Graß Nord,48.9906379,12.0782532,,
de:09362:14061:0:2,,Graß Nord,48.9907381,12.0767889,,
de:09362:14063:0:2,,Regensburg Neuprüll,48.9924004,12.0887365,,
de:09362:14063:0:3,,Regensburg Neuprüll,48.9923827,12.0892396,,
de:09362:14064:0:1,,Regensburg Von-Müller-Gymnasium Bstg 4,49.0044234,12.0720368,0,de:09362:14064_Parent
de:09362:14064:0:2,,Regensburg Von-Müller-Gymnasium Bstg 1,49.004394,12.0747587,0,de:09362:14064_Parent
de:09362:14064:0:3,,Regensburg Von-Müller-Gymnasium Bstg 2,49.0043881,12.0743365,0,de:09362:14064_Parent
de:09362:14064:0:4,,Regensburg Von-Müller-Gymnasium Bstg 3,49.004394,12.0738425,0,de:09362:14064_Parent
de:09362:14064_Parent,,Regensburg Von-Müller-Gymnasium,49.0043586,12.071956,1,
de:09362:14065,,Regensburg Nibelungenstraße,49.0043527,12.082592,0,de:09362:14065_Parent
de:09362:14065:0:0,,Regensburg Nibelungenstraße Bstg 2,49.0046238,12.0833287,0,de:09362:14065_Parent
de:09362:14065:0:1,,Regensburg Nibelungenstraße Bstg 1,49.0044116,12.0817746,0,de:09362:14065_Parent
de:09362:14065:0:2,,Regensburg Nibelungenstraße Bstg 3,49.0039284,12.0831221,0,de:09362:14065_Parent
de:09362:14065:1:4,,Regensburg Nibelungenstraße Bstg 4,49.0045943,12.0825382,0,de:09362:14065_Parent
de:09362:14065_Parent,,Regensburg Nibelungenstraße,49.0043527,12.082592,1,
de:09362:14066:0:2,,Rgbg. Oberer kath. Friedhof,49.0061618,12.0928059,,
de:09362:14066:0:3,,Rgbg. Oberer kath. Friedhof,49.0076821,12.0928598,,
de:09362:14066:0:4,,Rgbg. Oberer kath. Friedhof,49.0068572,12.092204,,
de:09362:14067:0:1,,Oberisling,48.9833104,12.1046457,,
de:09362:14067:0:2,,Oberisling,48.9834224,12.1051937,,
de:09362:14068:0:1,,Regensburg Otto-Hahn-Straße,48.9978759,12.0997589,,
de:09362:14068:0:3,,Regensburg Otto-Hahn-Straße,48.9984889,12.0989773,,
de:09362:14068:0:4,,Regensburg Otto-Hahn-Straße,48.9989545,12.0996241,,
de:09362:14069:0:2,,Rauberstraße,48.9840532,12.1097212,,
de:09362:14069:0:3,,Rauberstraße,48.984908,12.1110417,,
de:09362:14071:0:1,,Regensburg Safferlingstraße,49.0080121,12.115156,,
de:09362:14071:0:2,,Regensburg Safferlingstraße,49.0092849,12.1136827,,
de:09362:14072:0:0,,Regensburg Theresienkirche,49.0088724,12.0875597,,
de:09362:14073:0:2,,Regensburg Antoniuskirche,49.0094381,12.1091283,,
de:09362:14073:0:3,,Regensburg Antoniuskirche,49.0086544,12.1099098,,
de:09362:14074:0:1,,Rgbg. Bischof-Konrad-Straße,49.0069338,12.0949798,,
de:09362:14074:0:2,,Rgbg. Bischof-Konrad-Straße,49.0070693,12.0948451,,
de:09362:14075:0:0,,Schwabenstraße,48.9966147,12.1217316,0,de:09362:14075_Parent
de:09362:14075:0:1,,Schwabenstraße,48.997817,12.1206986,0,de:09362:14075_Parent
de:09362:14075:0:3,,Schwabenstraße,48.9972983,12.1201776,0,de:09362:14075_Parent
de:09362:14075:0:4,,Schwabenstraße,48.9976755,12.1197913,0,de:09362:14075_Parent
de:09362:14075:0:5,,Schwabenstraße,48.9976107,12.1195757,0,de:09362:14075_Parent
de:09362:14075_Parent,,Schwabenstraße,48.9972866,12.1198991,1,
de:09362:14076:0:1,,Regensburg Simmernstraße,49.0077469,12.0766901,,
de:09362:14076:0:2,,Regensburg Simmernstraße,49.0078825,12.0773369,,
de:09362:14077:0:1,,Regensburg Theodor-Storm-Straße,49.0025377,12.0841282,,
de:09362:14077:0:2,,Regensburg Theodor-Storm-Straße,49.0025259,12.0839575,,
de:09362:14078:0:1,,Regensburg Tulpenweg,48.9993493,12.1111315,,
de:09362:14078:0:2,,Regensburg Tulpenweg,48.9994377,12.1109788,,
de:09362:14079:0:1,,Jahnstadion Regensburg,48.9915044,12.1130719,0,de:09362:14079_Parent
de:09362:14079:0:2,,Jahnstadion Regensburg,48.9916694,12.1126048,0,de:09362:14079_Parent
de:09362:14079:0:6,,Jahnstadion Regensburg,48.9907971,12.1122185,0,de:09362:14079_Parent
de:09362:14079:0:7,,Jahnstadion Regensburg,48.990744,12.1111405,0,de:09362:14079_Parent
de:09362:14079_Parent,,Jahnstadion Regensburg,48.9909208,12.1127934,1,
de:09362:14080:0:0,,Regensburg Universität Bstg C,48.9987659,12.0916561,0,de:09362:14080_Parent
de:09362:14080:0:2,,Regensburg Universität Bstg B,48.998536,12.0917818,0,de:09362:14080_Parent
de:09362:14080:0:3,,Regensburg Universität Bstg A,48.998483,12.092231,0,de:09362:14080_Parent
de:09362:14080:0:4,,Regensburg Universität Bstg D,48.9988189,12.0920513,0,de:09362:14080_Parent
de:09362:14080:0:5,,Regensburg Universität Bstg E,48.9987364,12.0923567,0,de:09362:14080_Parent
de:09362:14080_Parent,,Regensburg Universität,48.998595,12.0914494,1,
de:09362:14082:0:2,,Rgbg. Unterer kath. Friedhof,49.0096679,12.1062627,,
de:09362:14082:0:3,,Rgbg. Unterer kath. Friedhof,49.0095029,12.1061549,,
de:09362:14083:0:0,,Regensburg Wolfgangskirche,49.0059909,12.0830592,,
de:09362:14084:0:2,,Regensburg Wolfgangschule Süd,48.9995792,12.0819093,,
de:09362:14084:0:3,,Regensburg Wolfgangschule Süd,49.0003866,12.0823495,,
de:09362:14085:0:2,,Regensburg Zeißstraße,49.0034216,12.1224144,,
de:09362:14085:0:3,,Regensburg Zeißstraße,49.004394,12.1213274,,
de:09362:14086:0:2,,Regensburg Humboldtstraße Bstg 1,48.9972453,12.1102152,,
de:09362:14086:0:3,,Regensburg Humboldtstraße Bstg 2,48.9968622,12.1092361,,
de:09362:14087:0:3,,Regensburg Ziegetsdorf,48.9930782,12.0665032,,
de:09362:14087:0:4,,Regensburg Ziegetsdorf,48.9921115,12.0658475,,
de:09362:14089:0:0,,Regensburg Schöneberger Straße,48.9969506,12.1259807,,
de:09362:14089:0:1,,Regensburg Schöneberger Straße,48.9971392,12.1260076,,
de:09362:14090:0:1,,Rgbg. Wolfgangschule Nord,49.0008227,12.0835083,,
de:09362:14090:0:2,,Rgbg. Wolfgangschule Nord,49.0011527,12.083158,,
de:09362:14091:0:1,,Regensburg Otto-Wels-Straße,48.9987836,12.0738604,,
de:09362:14091:0:2,,Regensburg Otto-Wels-Straße,48.9981765,12.0732765,,
de:09362:14091:0:3,,Regensburg Otto-Wels-Straße,48.998424,12.0742467,,
de:09362:14092:0:1,,Regensburg Vitusstraße,48.9949584,12.0839036,,
de:09362:14092:0:2,,Regensburg Vitusstraße,48.9948229,12.0839305,,
de:09362:14093:0:1,,"Regensburg, FOS/BOS Regensburg",48.9983828,12.1067837,,
de:09362:14094:0:1,,Regensburg Beethovenstraße,49.0077528,12.1055979,,
de:09362:14094:0:2,,Regensburg Beethovenstraße,49.0078353,12.1058045,,
de:09362:14095:0:1,,Regensburg Hornstraße,49.0045708,12.1123173,,
de:09362:14095:0:2,,Regensburg Hornstraße,49.0046179,12.1125509,,
de:09362:14096:0:1,,Regensburg Klinikum West,48.9890051,12.0858619,,
de:09362:14097:0:1,,Regensburg Burgunderstraße,49.0021958,12.1146529,,
de:09362:14097:0:2,,Regensburg Burgunderstraße,49.0020308,12.1152009,,
de:09362:14098:0:1,,Regensburg Friesenstraße,49.0011292,12.117285,,
de:09362:14098:0:2,,Regensburg Friesenstraße,49.0011233,12.1175275,,
de:09362:14102:0:1,,Regensburg Hermann-Höcherl-Straße,48.9851733,12.1456807,0,de:09362:14102_Parent
de:09362:14102:0:2,,Regensburg Hermann-Höcherl-Straße,48.9845072,12.1448004,0,de:09362:14102_Parent
de:09362:14102:0:3,,Regensburg Hermann-Höcherl-Straße,48.9846722,12.1455999,0,de:09362:14102_Parent
de:09362:14102:0:4,,Regensburg Hermann-Höcherl-Straße,48.9852146,12.1446387,0,de:09362:14102_Parent
de:09362:14102_Parent,,Regensburg Hermann-Höcherl-Straße,48.9848845,12.1452855,1,
de:09362:14103:0:1,,Regensburg Karthauser Straße,49.0008993,12.0864728,,
de:09362:14103:0:2,,Regensburg Karthauser Straße,49.0010997,12.0871645,,
de:09362:15001:0:2,,Regensburg Albertus-Magnus-Gymnasium,49.0239253,12.0774537,,
de:09362:15001:0:3,,Regensburg Albertus-Magnus-Gymnasium,49.0240431,12.0753247,,
de:09362:15002:0:0,,Rgbg. An den Klostergründen,49.0161019,12.0408473,,
de:09362:15003:0:0,,Regensburg Annahofstraße,49.0181521,12.0456623,,
de:09362:15004:0:2,,Regensburg Boessnerstraße Bstg 2,49.0238252,12.0670332,0,de:09362:15004_Parent
de:09362:15004:0:3,,Regensburg Boessnerstraße Bstg 1,49.0233834,12.0645898,0,de:09362:15004_Parent
de:09362:15004:0:5,,Regensburg Boessnerstraße Bstg 4,49.0243612,12.0647515,0,de:09362:15004_Parent
de:09362:15004:0:6,,Regensburg Boessnerstraße Bstg 5,49.0242022,12.0648054,0,de:09362:15004_Parent
de:09362:15004_Parent,,Regensburg Boessnerstraße,49.0238428,12.0647695,1,
de:09362:15005:0:0,,Regensburg Deiningerstraße,49.0164672,12.0478901,,
de:09362:15005:0:1,,Regensburg Deiningerstraße,49.0152358,12.0471715,,
de:09362:15007:0:1,,Regensburg Dürerstraße,49.0033509,12.0607899,,
de:09362:15007:0:2,,Regensburg Dürerstraße,49.0030739,12.0615266,,
de:09362:15008:0:1,,Regensburg Gumpelzhaimerstraße,49.0228296,12.0784149,,
de:09362:15008:0:2,,Regensburg Gumpelzhaimerstraße,49.0224997,12.0790976,,
de:09362:15009:0:3,,Regensburg Goethestraße Bstg 3,49.017127,12.0771393,,
de:09362:15009:0:4,,Regensburg Goethestraße Bstg 4,49.0171093,12.0762679,,
de:09362:15010:0:1,,Regensburg Hans-Sachs-Straße,49.0207325,12.0773998,,
de:09362:15010:0:2,,Regensburg Hans-Sachs-Straße,49.0208385,12.0775435,,
de:09362:15010:0:3,,Regensburg Hans-Sachs-Straße,49.0205322,12.0778849,,
de:09362:15011:0:1,,Regensburg Hermann-Köhl-Straße,49.0205204,12.0563792,,
de:09362:15011:0:2,,Regensburg Hermann-Köhl-Straße,49.0204026,12.0562265,,
de:09362:15012:0:1,,Regensburg Josef-Adler-Straße,49.0240019,12.0723243,,
de:09362:15012:0:2,,Regensburg Josef-Adler-Straße,49.0241256,12.0713182,,
de:09362:15013:0:1,,Regensburg Dornierstraße,49.0214629,12.0628471,,
de:09362:15013:0:2,,Regensburg Dornierstraße,49.0214512,12.0630986,,
de:09362:15015:0:0,,Regensburg Killermannstraße,49.0136451,12.0466505,,
de:09362:15016:0:1,,Regensburg Lessingstraße,49.0165025,12.0724231,,
de:09362:15016:0:2,,Regensburg Lessingstraße,49.0164672,12.0706355,,
de:09362:15017:1:4,,Regensburg Lilienthalstraße,49.0138631,12.0569631,0,de:09362:15017_Parent
de:09362:15017:2:1,,Regensburg Lilienthalstraße,49.0135036,12.0581758,0,de:09362:15017_Parent
de:09362:15017:2:2,,Regensburg Lilienthalstraße,49.0140987,12.0586969,0,de:09362:15017_Parent
de:09362:15017:2:3,,Regensburg Lilienthalstraße,49.0146113,12.0578255,0,de:09362:15017_Parent
de:09362:15017_Parent,,Regensburg Lilienthalstraße,49.0140162,12.0579333,1,
de:09362:15018:0:1,,Margaretenau/KH Barm. Brüder Bstg 1,49.0158898,12.0676261,,
de:09362:15018:0:2,,Margaretenau/KH Barm. Brüder Bstg 2,49.0159075,12.0665302,,
de:09362:15019:0:1,,Regensburg Heinkelstraße,49.0185115,12.0578704,,
de:09362:15020:0:0,,Rgbg. Michael-Burgau-Straße,49.0148234,12.0609247,,
de:09362:15021:0:1,,Regensburg Obermaierstraße,49.0210152,12.070914,,
de:09362:15021:0:2,,Regensburg Obermaierstraße,49.0211331,12.0708511,,
de:09362:15022:0:1,,Regensburg Ostdeutsche Galerie,49.019837,12.0829424,,
de:09362:15022:0:2,,Regensburg Ostdeutsche Galerie,49.0204202,12.0823585,,
de:09362:15023:0:0,,Prüfening,49.0126316,12.0412516,,
de:09362:15023:0:2,,Prüfening,49.0128202,12.0408473,,
de:09362:15025:0:1,,Regensburg Rennplatz,49.0126375,12.0504413,,
de:09362:15025:0:2,,Regensburg Rennplatz,49.0126258,12.0517349,,
de:09362:15026:0:0,,Regensburg Rennweg,49.0128438,12.0459049,,
de:09362:15026:0:1,,Regensburg Rennweg,49.0130146,12.0449077,,
de:09362:15028:0:1,,Regensburg Taxisstraße Bstg 1,49.0185704,12.0840383,,
de:09362:15028:0:2,,Regensburg Taxisstraße Bstg 2,49.0187471,12.0847211,,
de:09362:15032:0:2,,Regensburg Weinweg,49.0276716,12.0639251,,
de:09362:15032:0:3,,Regensburg Weinweg,49.0273123,12.0648952,,
de:09362:15033:0:0,,Regensburg Wernerwerkstraße,49.0219342,12.0564511,,
de:09362:15033:0:2,,Regensburg Wernerwerkstraße,49.0219872,12.0567475,,
de:09362:15033:0:3,,Regensburg Wernerwerkstraße,49.0219696,12.0566038,,
de:09362:15034:0:2,,Regensburg Westbad,49.0246381,12.0572057,,
de:09362:15034:0:3,,Regensburg Westbad,49.0243965,12.056999,,
de:09362:15035:0:1,,Regensburg Westheim,49.0277305,12.0592359,,
de:09362:15035:0:2,,Regensburg Westheim,49.0277953,12.0588765,,
de:09362:15038:0:1,,Regensburg Elisabethstraße Bstg 1,49.0265819,12.0698719,,
de:09362:15039:0:1,,"Regensburg, Clermont-Ferrand-Allee",49.023295,12.0597299,,
de:09362:15039:0:2,,"Regensburg, Clermont-Ferrand-Allee",49.0233598,12.059703,,
de:09362:15040:0:1,,Regensburg Sparkasse,49.0182994,12.0547533,,
de:09362:15040:0:2,,Regensburg Sparkasse,49.0182994,12.0544927,,
de:09362:15041:0:2,,Regensburg Weinmannstraße,49.0225881,12.0597838,,
de:09362:151:0:1,,Rgbg. Gallingkofen/Hochmuth,49.0473233,12.1012411,,
de:09362:151:0:2,,Rgbg. Gallingkofen/Hochmuth,49.0470172,12.1017441,,
de:09362:16002:0:2,,Regensburg Kager,49.028614,12.0380536,,
de:09362:16002:0:3,,Regensburg Kager,49.0285316,12.0382063,,
de:09362:16003:0:1,,Regensburg Niederwinzer,49.0331492,12.0595862,,
de:09362:16003:0:2,,Regensburg Niederwinzer,49.0330196,12.0598647,,
de:09362:16005:0:1,,Regensburg Nürnberger Straße,49.0329489,12.0651737,,
de:09362:16005:0:2,,Regensburg Nürnberger Straße,49.0327075,12.0653624,,
de:09362:16006:0:1,,Regensburg Oberpfalzbrücke,49.0284197,12.0918088,,
de:09362:16006:0:2,,Regensburg Oberpfalzbrücke,49.0281487,12.0932101,,
de:09362:16008:0:1,,Regensburg Oberwinzer,49.0311703,12.046893,,
de:09362:16008:0:2,,Regensburg Oberwinzer,49.0309347,12.046354,,
de:09362:16009:0:1,,Regensburg Schelmengraben,49.0300571,12.0915662,,
de:09362:16009:0:2,,Regensburg Schelmengraben,49.0300571,12.0913955,,
de:09362:16010:0:1,,Rgbg. Pfaffensteiner Brücke,49.0297861,12.0796546,,
de:09362:16010:0:2,,Rgbg. Pfaffensteiner Brücke,49.0296153,12.0799151,,
de:09362:16011:0:0,,Regensburg Steinweg,49.028667,12.0993277,0,de:09362:16011_Parent
de:09362:16011:0:3,,Regensburg Steinweg,49.0282312,12.0981778,0,de:09362:16011_Parent
de:09362:16011:0:4,,Regensburg Steinweg,49.0275656,12.0992558,0,de:09362:16011_Parent
de:09362:16011:0:5,,Regensburg Steinweg,49.0271533,12.0989683,0,de:09362:16011_Parent
de:09362:16011:0:6,,Regensburg Steinweg,49.0279543,12.1005134,0,de:09362:16011_Parent
de:09362:16011_Parent,,Regensburg Steinweg,49.0280368,12.099139,1,
de:09362:16012:0:1,,Regensburg Würzburger Straße,49.0286258,12.0878382,,
de:09362:16012:0:2,,Regensburg Würzburger Straße,49.0283195,12.090057,,
de:09362:16028:0:1,,Regensburg Dornfelderweg,49.032148,12.05116,,
de:09362:16028:0:2,,Regensburg Dornfelderweg,49.0320596,12.051133,,
de:09362:16034:0:1,,Regensburg Pfälzer Siedlung,49.0371539,12.0958691,,
de:09362:16034:0:2,,Regensburg Pfälzer Siedlung,49.038002,12.0958063,,
de:09362:16036:0:0,,Regensburg Dreifaltigkeitsberg,49.0314176,12.0937851,,
de:09362:16036:0:1,,Regensburg Dreifaltigkeitsberg,49.0336969,12.091171,,
de:09362:16036:0:3,,Regensburg Dreifaltigkeitsberg Bstg 3,49.0336969,12.0910093,,
de:09362:16042:0:1,,Regensburg Bei der Rinnen,49.0352046,12.0967944,,
de:09362:16042:0:2,,Regensburg Bei der Rinnen,49.0351222,12.0970998,,
de:09362:163:0:1,,Regensburg Goethe-Gymnasium,49.0185292,12.0768159,,
de:09362:163:0:2,,Regensburg Goethe-Gymnasium,49.0185822,12.0769416,,
de:09362:169:0:1,,Regensburg Greflingerstraße,49.0136038,12.1161351,,
de:09362:169:0:2,,Regensburg Greflingerstraße,49.013704,12.1158387,,
de:09362:17005:0:1,,Regensburg Zur Hohen Linie,49.0405989,12.1606916,,
de:09362:17005:0:2,,Regensburg Zur Hohen Linie,49.0407403,12.1608892,,
de:09362:230:0:1,,Burgweinting Höfling,48.9815122,12.1489596,,
de:09362:230:0:2,,Burgweinting Höfling,48.9812764,12.1489596,,
de:09362:235:0:1,,"Regensburg, Irl",49.0030268,12.1676266,,
de:09362:235:0:2,,"Regensburg, Irl",49.0029737,12.167393,,
de:09362:258:0:1,,Kreuzhof,49.0060793,12.1778853,,
de:09362:258:0:2,,Kreuzhof,49.0059261,12.1778853,,
de:09362:4:0:1,,Regensburg Sonderburger Straße,49.043973,12.1317658,,
de:09362:4:0:2,,Regensburg Sonderburger Straße,49.0437493,12.1316401,,
de:09362:492,,Unterisling,48.9812705,12.1161711,,
de:09362:492:0:1,,Unterisling,48.9812705,12.1161711,,
de:09362:498:0:1,,Regensburg Von-Richthofen-Str.,48.9976225,12.0750911,,
de:09362:498:0:2,,Regensburg Von-Richthofen-Str.,48.9977522,12.0748755,,
de:09362:540:0:1,,Regensburg Wutzlhofen Bahnhof,49.0584619,12.1345776,,
de:09362:540:0:2,,Regensburg Wutzlhofen Bahnhof,49.058303,12.1348381,,
de:09362:546:0:1,,Regensburg Ziegetsdorfer Höhe,48.9890522,12.068201,,
de:09362:546:0:2,,Regensburg Ziegetsdorfer Höhe,48.9890522,12.0686951,,
de:09362:546:0:3,,Regensburg Ziegetsdorfer Höhe,48.9887693,12.0686861,,
de:09362:57:0:1,,Regensburg Am Holzhof,49.0313234,12.0991031,,
de:09362:57:0:2,,Regensburg Am Holzhof,49.0315236,12.0993097,,
de:09362:588:0:1,,Regensburg Am BioPark,48.9941156,12.1038192,,
de:09362:588:0:2,,Regensburg Am BioPark,48.9942276,12.1038192,,
de:09362:592:0:2,,Regensburg Asamstraße,49.0091317,12.0795737,,
de:09362:592:0:3,,Regensburg Asamstraße,49.0100214,12.0812625,,
de:09362:593:0:1,,Regensburg Auf der Grede,49.0263168,12.0925813,,
de:09362:593:0:2,,Regensburg Auf der Grede,49.0264111,12.0925813,,
de:09362:598:0:1,,Haslbachweg,49.0501965,12.1230522,,
de:09362:598:0:2,,Haslbachweg,49.050697,12.1241481,,
de:09362:602:0:2,,Lieperkingstraße,48.9821961,12.099166,,
de:09362:602:0:3,,Lieperkingstraße,48.9823023,12.0983754,,
de:09362:616:0:1,,Regensburg Coburger Straße,49.0554008,12.1312448,0,de:09362:616_Parent
de:09362:616:0:2,,Regensburg Coburger Straße,49.0552183,12.1315592,0,de:09362:616_Parent
de:09362:616:0:3,,Regensburg Coburger Straße,49.0561544,12.1307956,0,de:09362:616_Parent
de:09362:616:0:4,,Regensburg Coburger Straße,49.0562309,12.130616,0,de:09362:616_Parent
de:09362:616_Parent,,Regensburg Coburger Straße,49.0558482,12.1309843,1,
de:09362:65:0:1,,Regensburg Naabstraße Bstg 1,49.0278248,12.1105117,,
de:09362:65:0:2,,Regensburg Naabstraße Bstg 2,49.0281428,12.1095864,,
de:09362:669:0:1,,Landshuter Straße/Klier,49.0150178,12.1048343,,
de:09362:718:0:0,,Roter-Brach-Weg,49.0181286,12.0526332,,
de:09362:718:0:1,,Roter-Brach-Weg,49.0181462,12.0522919,,
de:09362:718:0:3,,Roter-Brach-Weg,49.018105,12.0524176,,
de:09362:80:0:1,,Regensburg Haus der Bayerischen Geschichte,49.0203024,12.1017351,,
de:09362:80:0:2,,Regensburg Haus der Bayerischen Geschichte,49.0203201,12.1015106,,
de:09362:81:0:1,,Lotte-Branz-Straße,48.9893116,12.1217676,,
de:09362:81:0:2,,Lotte-Branz-Straße,48.9895356,12.1222078,,
de:09362:9:0:1,,"Regensburg, Erboweg",49.0118716,12.0549239,,
de:09362:900:0:1,,Regensburg Sulzfeldstraße,49.0028795,12.1766636,,
de:09362:900:0:2,,Regensburg Sulzfeldstraße,49.0027734,12.1765918,,
de:09362:944:0:0,,Regensburg IKEA,49.0014945,12.1761875,,
de:09372:1096:0:1,,Wünschenbach,49.0942805,12.3389263,,
de:09372:1096:0:2,,Wünschenbach,49.0942335,12.3388994,,
de:09372:1154:30:1,,Cham Bahnhof,49.2226017,12.6565706,,
de:09372:1172:0:1,,Cham Floßhafen,49.2188055,12.6686709,,
de:09372:1172:0:2,,Cham Floßhafen,49.2186529,12.6685182,,
de:09372:1176:0:1,,Cham Abzw. Altenmarkt,49.2020626,12.6624725,,
de:09372:1176:0:2,,Cham Abzw. Altenmarkt,49.2020802,12.6626791,,
de:09372:1199:0:2,,Cham Stadtpark,49.2231942,12.6592745,,
de:09372:1218:0:1,,Cham Wulfing,49.215455,12.5679967,,
de:09372:1218:0:2,,Cham Wulfing,49.2154316,12.5679428,,
de:09372:1224:0:1,,Cham Scharlau,49.1923123,12.6447039,,
de:09372:1224:0:2,,Cham Scharlau,49.192283,12.6446859,,
de:09372:1229:0:1,,Cham Altenmarkt Ortsmitte,49.2065173,12.6449015,,
de:09372:1229:0:2,,Cham Altenmarkt Ortsmitte,49.2064058,12.6449105,,
de:09372:1237:0:1,,Cham Altenmarkt Kindergarten,49.2091642,12.6293337,,
de:09372:1237:0:2,,Cham Altenmarkt Kindergarten,49.2090586,12.6294415,,
de:09372:1238:0:1,,Cham Untertraubenbach Ort,49.2113708,12.5783184,,
de:09372:1238:0:2,,Cham Untertraubenbach Ort,49.211183,12.5782555,,
de:09372:1240:0:1,,Cham Ried am Pfahl,49.2005952,12.6065524,,
de:09372:1240:0:2,,Cham Ried am Pfahl,49.2005658,12.6065434,,
de:09372:1253:0:1,,Cham Janahof,49.2063471,12.6665778,,
de:09372:1253:0:2,,Cham Janahof,49.2060654,12.6665329,,
de:09372:1264:0:1,,Cham Thierlstein Gasthaus,49.2055313,12.5937963,,
de:09372:1264:0:2,,Cham Thierlstein Gasthaus,49.2055783,12.5938143,,
de:09372:1265:0:1,,Cham Busbahnhof Jahnstr.,49.2237164,12.6686709,,
de:09372:1402:0:1,,Eckerzell,49.0818026,12.5073065,,
de:09372:1402:0:2,,Eckerzell,49.0818379,12.5074323,,
de:09372:1403:0:1,,Arrach,49.0805199,12.4897894,,
de:09372:1403:0:2,,Arrach,49.0803963,12.4897714,,
de:09372:1409:0:1,,Falkenstein Mühlthal,49.1068141,12.4838785,,
de:09372:1410:0:1,,Falkenstein Krankenhausstraße 37,49.0992626,12.4952781,,
de:09372:1413:0:1,,Falkenstein Völling,49.106379,12.5021951,,
de:09372:1413:0:2,,Falkenstein Völling,49.1062378,12.5023119,,
de:09372:1415:0:1,,Falkenstein Busbahnhof,49.0963216,12.484687,,
de:09372:1415:0:2,,Falkenstein Busbahnhof,49.0962863,12.4848217,,
de:09372:1900:0:1,,Michelsneukirchen Ortsmitte,49.124136,12.5521864,,
de:09372:1900:0:2,,Michelsneukirchen Ortsmitte,49.1240185,12.5521953,,
de:09372:1902:0:1,,Michelsneukirchen St. Quirin,49.1207439,12.5372294,,
de:09372:1902:0:2,,Michelsneukirchen St. Quirin,49.1206086,12.5373013,,
de:09372:1903:0:1,,Michelsneuk. Abzw. Grießmühl,49.1257644,12.5684369,,
de:09372:1922:0:1,,Wanderparkplatz Höllbach,49.0783898,12.4364923,,
de:09372:2151:0:1,,Reichenbach Bushäuschen,49.1848442,12.3493378,,
de:09372:2151:0:2,,Reichenbach Bushäuschen,49.1848795,12.3494905,,
de:09372:2200:0:1,,Ebersroith,49.0696981,12.4849924,,
de:09372:2200:0:2,,Ebersroith,49.0696981,12.4851631,,
de:09372:2301:0:1,,Roding Busbahnh. Schornd. Str.,49.1925295,12.5207094,,
de:09372:2301:0:2,,Roding Busbahnh. Schornd. Str.,49.1926469,12.5207633,,
de:09372:2310:0:1,,Roding Am Hohen Kreuz,49.1923358,12.5120047,,
de:09372:2310:0:2,,Roding Am Hohen Kreuz,49.1922536,12.5122383,,
de:09372:2311:0:1,,Roding Sparkasse,49.1960929,12.5186163,,
de:09372:2311:0:2,,Roding Sparkasse,49.1960048,12.5186972,,
de:09372:2320:0:1,,Roding Stadlhof Abzw. Regenp.,49.1854431,12.5026802,,
de:09372:2320:0:2,,Roding Stadlhof Abzw. Regenp.,49.1853844,12.502797,,
de:09372:2321:0:1,,Roding Wiesing,49.1789077,12.486259,,
de:09372:2321:0:2,,Roding Wiesing,49.1788783,12.4864297,,
de:09372:2322:0:1,,Roding Mackenschleife,49.1740159,12.4752726,,
de:09372:2322:0:2,,Roding Mackenschleife,49.1739982,12.4754163,,
de:09372:2323:0:1,,Roding Trasching Ortsmitte,49.1559418,12.4626782,,
de:09372:2323:0:2,,Roding Trasching Ortsmitte,49.1558948,12.462786,,
de:09372:2326:0:1,,Roding Neubäu,49.2357598,12.4173133,,
de:09372:2326:0:2,,Roding Neubäu,49.2356542,12.4172414,,
de:09372:2327:0:1,,Roding Altenkreith HSt. B85,49.2061065,12.4858458,,
de:09372:2327:0:2,,Roding Altenkreith HSt. B85,49.2060361,12.485729,,
de:09372:2328:0:1,,Roding Nassen/Altenkreith,49.2047566,12.469182,,
de:09372:2328:0:2,,Roding Nassen/Altenkreith,49.2046392,12.4692808,,
de:09372:2338:0:1,,Roding Chamer Steig,49.1985466,12.5247069,,
de:09372:2338:0:2,,Roding Chamer Steig,49.1985583,12.5246171,,
de:09372:2342:0:1,,Roding Mitterdorf Sparkasse,49.1999025,12.5084654,,
de:09372:2342:0:2,,Roding Mitterdorf Sparkasse,49.199879,12.5082857,,
de:09372:2347:0:1,,Roding Wetterfeld B85,49.220243,12.5424576,,
de:09372:2347:0:2,,Roding Wetterfeld B85,49.220202,12.5424666,,
de:09372:2554:0:1,,Schorndorf Knöbling,49.1653761,12.6070824,,
de:09372:2554:0:2,,Schorndorf Knöbling,49.1654055,12.6071094,,
de:09372:2555:0:1,,Schorndorf Radling,49.1791426,12.6271687,,
de:09372:2555:0:2,,Schorndorf Radling,49.1791896,12.6272047,,
de:09372:2579:0:1,,Schorndorf Oberaign,49.1389131,12.5916134,,
de:09372:2580:0:1,,Schorndorf Unteraigen,49.1439083,12.5901402,,
de:09372:2583:0:1,,Schorndorf Baierberg,49.1465761,12.5696766,,
de:09372:2583:0:2,,Schorndorf Baierberg,49.1466466,12.5696496,,
de:09372:2593:0:1,,Schorndorf Kirche,49.1589027,12.5914877,,
de:09372:2593:0:2,,Schorndorf Kirche,49.1590084,12.5918111,,
de:09372:2850:0:1,,Hirschenbühl,49.1404646,12.3670166,,
de:09372:2850:0:2,,Hirschenbühl,49.1402883,12.3669897,,
de:09372:2851:0:1,,Abzw. Wald / Tap. Schweiger,49.1395243,12.3462386,,
de:09372:2851:0:2,,Abzw. Wald / Tap. Schweiger,49.139301,12.3462117,,
de:09372:2852:0:1,,Roßbach Gasthof Eichinger,49.1418515,12.3304911,,
de:09372:2852:0:2,,Roßbach Gasthof Eichinger,49.1415871,12.3305271,,
de:09372:2854:0:1,,Süssenbach,49.1066848,12.364142,,
de:09372:2854:0:2,,Süssenbach,49.1065671,12.3643576,,
de:09372:2855:0:1,,Siegenstein,49.0953805,12.355114,,
de:09372:2855:0:2,,Siegenstein,49.0952628,12.3553206,,
de:09372:2866:0:1,,Wiesmühle,49.1017152,12.3574765,,
de:09372:2866:0:2,,Wiesmühle,49.1016976,12.3576382,,
de:09372:2867:0:1,,Steinmühl,49.0941452,12.3338868,,
de:09372:2867:0:2,,Steinmühl,49.094104,12.3340934,,
de:09372:2868:0:1,,Roßbach ehem. Bahnhof,49.1426684,12.334318,,
de:09372:2868:0:2,,Roßbach ehem. Bahnhof,49.1425626,12.334318,,
de:09372:2869:0:1,,Wald Abzw. Nahenfürst,49.1469639,12.3427082,,
de:09372:2869:0:2,,Wald Abzw. Nahenfürst,49.1468523,12.3429059,,
de:09372:2870:0:1,,Wald Schule,49.1494025,12.3484305,,
de:09372:2870:0:2,,Wald Schule,49.1496727,12.3485383,,
de:09372:2871:0:1,,Wald Ost,49.1472754,12.3586803,,
de:09372:2871:0:2,,Wald Ost,49.147058,12.3584916,,
de:09372:2901:0:1,,Walderbach Straßhof,49.199521,12.4152921,,
de:09372:2901:0:2,,Walderbach Straßhof,49.1994388,12.4154448,,
de:09372:2902:0:1,,Walderbach Bushäuschen,49.1851026,12.3804914,,
de:09372:2902:0:2,,Walderbach Bushäuschen,49.1849617,12.3804644,,
de:09372:2906:0:1,,Walderbach Abzw. Eichelberg,49.2052437,12.4289645,,
de:09372:2906:0:2,,Walderbach Abzw. Eichelberg,49.2052027,12.4290363,,
de:09372:2907:0:1,,Walderbach Kirchenrohrb. FWH,49.1843158,12.4064976,,
de:09372:2907:0:2,,Walderbach Kirchenrohrb. FWH,49.1844391,12.4066773,,
de:09372:2908:0:1,,Walderbach Abzw. Dieberg,49.1861301,12.3669448,,
de:09372:2908:0:2,,Walderbach Abzw. Dieberg,49.1860185,12.3669717,,
de:09372:3300:0:1,,Zell Steinm. Abzw. Waffenhof,49.153392,12.4541353,,
de:09372:3300:0:2,,Zell Steinm. Abzw. Waffenhof,49.1532921,12.4543149,,
de:09372:3301:0:1,,Zell Geresdorf,49.1489206,12.4474787,,
de:09372:3301:0:2,,Zell Geresdorf,49.1488031,12.4475596,,
de:09372:3302:0:1,,Zell Kiesried,49.1464351,12.4282009,,
de:09372:3302:0:2,,Zell Kiesried,49.1463411,12.428156,,
de:09372:3303:0:1,,Zell (Oberpfalz) Ortsmitte,49.1428682,12.4122378,,
de:09372:3303:0:2,,Zell (Oberpfalz) Ortsmitte,49.1425978,12.4122378,,
de:09372:3304:0:1,,Zell Hatzelsdorfer Weg Abzw.,49.1460179,12.3941727,,
de:09372:3304:0:2,,Zell Hatzelsdorfer Weg Abzw.,49.1458063,12.3939481,,
de:09372:3306:0:1,,Haag bei Zell,49.1271282,12.4190021,,
de:09372:3306:0:2,,Haag bei Zell,49.1270459,12.4187237,,
de:09372:3307:0:1,,Martinsneukirchen,49.122584,12.4193076,,
de:09372:3307:0:2,,Martinsneukirchen,49.1226722,12.4189932,,
de:09372:3308:0:1,,Schillertswiesen,49.1059673,12.4040272,,
de:09372:3308:0:2,,Schillertswiesen,49.1060849,12.4037847,,
de:09372:3315:0:1,,Hetzenbach Gasthof Linde,49.1414519,12.380159,,
de:09372:3315:0:2,,Hetzenbach Gasthof Linde,49.141258,12.3803207,,
de:09372:3317:0:1,,Fuchshölzl,49.1164519,12.4137919,,
de:09372:3317:0:2,,Fuchshölzl,49.1164695,12.4135045,,
de:09372:50089:0:1,,Gfäll ehem. Bahnhof,49.0990685,12.4214635,,
de:09372:50089:0:2,,Gfäll ehem. Bahnhof,49.0992861,12.4211311,,
de:09372:50090:0:1,,Schergendorf bei Falkenstein,49.0962922,12.4401395,,
de:09372:50090:0:2,,Schergendorf bei Falkenstein,49.0961334,12.4400587,,
de:09372:50091:0:1,,Winkling,49.0959158,12.452644,,
de:09372:50091:0:2,,Winkling,49.095904,12.4520781,,
de:09372:52484:0:1,,Michelsneukirchen Ponholz,49.1305317,12.5849749,,
de:09372:52487:0:1,,Erpfenzell,49.0679619,12.5179516,,
de:09372:52487:0:2,,Erpfenzell,49.0679973,12.5180863,,
de:09372:52496:0:1,,Schorndorf Siedlung,49.1621278,12.5951438,,
de:09372:52496:0:2,,Schorndorf Siedlung,49.1620749,12.5951528,,
de:09372:52507:0:1,,Schorndorf Radling Pfahl,49.1824133,12.6299356,,
de:09372:52507:0:2,,Schorndorf Radling Pfahl,49.1824486,12.6298008,,
de:09372:52509:0:1,,Schorndorf Sandberg Abzw.,49.1723832,12.6186347,,
de:09372:52509:0:2,,Schorndorf Sandberg Abzw.,49.1722657,12.6188953,,
de:09372:52512:0:1,,Schorndorf Unteraigen Abzw.,49.1510418,12.5863134,,
de:09372:52512:0:2,,Schorndorf Unteraigen Abzw.,49.1510888,12.586493,,
de:09372:52514:0:1,,Michelsneuk. Zigeunertafel,49.1384841,12.5588968,,
de:09372:52514:0:2,,Michelsneuk. Zigeunertafel,49.1385663,12.5588159,,
de:09372:52517:0:1,,Michelsneukirchen Schwaighof,49.1177336,12.5277342,,
de:09372:52517:0:2,,Michelsneukirchen Schwaighof,49.1176572,12.5279049,,
de:09372:52518:0:1,,Michelsneuk. Hofstetten Abzw,49.1092429,12.5123551,,
de:09372:52518:0:2,,Michelsneuk. Hofstetten Abzw,49.1092017,12.5125707,,
de:09372:52520:0:1,,Falkenstein Birnerstraße,49.1006271,12.4896726,,
de:09372:52520:0:2,,Falkenstein Birnerstraße,49.1005036,12.4897085,,
de:09372:52523:0:1,,Falkenstein Gärtnerei Bayerl,49.0942393,12.4836629,,
de:09372:52523:0:2,,Falkenstein Gärtnerei Bayerl,49.0942393,12.4838605,,
de:09372:52524:0:1,,Woppmannszell,49.0897274,12.5000122,,
de:09372:52524:0:2,,Woppmannszell,49.0898215,12.5000661,,
de:09372:52528:0:1,,Rettenbach bei Falkenstein,49.0691743,12.4570278,,
de:09372:52528:0:2,,Rettenbach bei Falkenstein,49.0690743,12.4570099,,
de:09372:52529:0:1,,Langau,49.0617465,12.4660289,,
de:09372:52529:0:2,,Langau,49.0618348,12.4661098,,
de:09372:52530:0:1,,Haag bei Rettenbach,49.0579027,12.4595611,,
de:09372:52530:0:2,,Haag bei Rettenbach,49.0578968,12.4597497,,
de:09372:52531:0:1,,Eitenzell,49.050591,12.4632172,,
de:09372:52531:0:2,,Eitenzell,49.0505086,12.4633789,,
de:09372:52532:0:1,,Brieberg Abzweigung,49.0483125,12.4518895,,
de:09372:52532:0:2,,Brieberg Abzweigung,49.0482065,12.4518625,,
de:09372:52533:0:1,,See Abzweigung,49.0519039,12.4418822,,
de:09372:52533:0:2,,See Abzweigung,49.0518215,12.4418014,,
de:09372:52534:0:1,,Aumbach Abzweigung,49.0502966,12.4276799,,
de:09372:52534:0:2,,Aumbach Abzweigung,49.0502142,12.4278505,,
de:09372:52535:0:1,,Aumbrunn,49.0484302,12.4215354,,
de:09372:52535:0:2,,Aumbrunn,49.0483125,12.4227032,,
de:09372:52539:0:1,,Falkenstein Arracher Höhe,49.0919158,12.4870855,,
de:09372:52539:0:2,,Falkenstein Arracher Höhe,49.0920511,12.4870675,,
de:09372:52542:0:1,,Falkenstein Rathaus/Marktplatz,49.0978627,12.4859895,,
de:09372:52542:0:2,,Falkenstein Rathaus/Marktplatz,49.0978804,12.4861692,,
de:09373:17561:0:1,,Hohenfels Parsberger Str.,49.204739,11.8524347,,
de:09373:17561:0:2,,Hohenfels Parsberger Str.,49.2049092,11.8525155,,
de:09373:17562:0:1,,Hohenfels Sterzenbach,49.2026554,11.8492367,,
de:09373:17562:0:2,,Hohenfels Sterzenbach,49.202761,11.8491379,,
de:09373:17568:0:1,,Hohenfels Ziegelhütte,49.196674,11.8599087,,
de:09373:17568:0:2,,Hohenfels Ziegelhütte,49.1973491,11.8586959,,
de:09373:17569:0:1,,Baumühle,49.1912497,11.8823037,,
de:09373:17569:0:2,,Baumühle,49.191326,11.8825372,,
de:09373:17573:0:1,,Fuchsmühle,49.1932575,11.8630168,,
de:09373:17573:0:2,,Fuchsmühle,49.1932575,11.8630977,,
de:09373:17588:0:1,,Lauf,49.1852494,11.9125679,,
de:09373:17588:0:2,,Lauf,49.1851672,11.9129362,,
de:09375:10:0:1,,Abzw. Einthal,48.9529337,12.1680578,,
de:09375:10:0:2,,Abzw. Einthal,48.952798,12.16795,,
de:09375:100:0:1,,Danersdorf,49.1600717,12.2080418,,
de:09375:100:0:2,,Danersdorf Bstg 2,49.1600189,12.2078801,,
de:09375:1002:0:1,,Schierling Antonileit'n,48.8418137,12.1357094,,
de:09375:1003:0:1,,Ramspau Leonb. Str.,49.1597897,12.1440907,,
de:09375:1003:0:2,,Ramspau Leonb. Str.,49.1595313,12.143929,,
de:09375:1004:0:1,,Thalmassing Wolkeringer Straße,48.9148821,12.1529212,,
de:09375:1004:0:2,,Thalmassing Wolkeringer Straße,48.9147936,12.1528673,,
de:09375:1006:0:1,,Regenstauf Reha-Klinik,49.1142411,12.1405424,,
de:09375:1007:0:1,,Regenstauf  Zentrum/Bahnhof,49.1218844,12.126322,,
de:09375:1007:0:2,,Regenstauf  Zentrum/Bahnhof,49.1220725,12.1256573,,
de:09375:1008:0:1,,Diesenbach Sandstraße,49.1315604,12.1167999,,
de:09375:101:0:1,,Darmannsdorf,49.1478689,12.2673486,,
de:09375:101:0:2,,Darmannsdorf,49.1477748,12.2674653,,
de:09375:1011:0:1,,Regenstauf Busbahnhof,49.1186685,12.1334726,,
de:09375:1012:0:1,,Oberbirnbach,48.7759976,12.1044031,,
de:09375:1012:0:2,,Oberbirnbach,48.7758792,12.1045648,,
de:09375:1013:0:1,,Oberirading,48.9688291,12.0404611,,
de:09375:1014:0:1,,Alt-Prüll,48.923294,12.1264388,,
de:09375:1015:0:1,,Aufhausen Abzw. Petzkofen,48.8738415,12.2881895,,
de:09375:1015:0:2,,Aufhausen Abzw. Petzkofen,48.8728017,12.2881715,,
de:09375:1018:0:1,,Abzw. Brunoder,49.1278983,11.9879995,,
de:09375:1018:0:2,,Abzw. Brunoder,49.1278689,11.987712,,
de:09375:1019,,Kumpfhof,49.0193127,11.7471521,,
de:09375:1019:0:1,,Kumpfhof,49.0193304,11.7471521,,
de:09375:102:0:1,,Großberg Gebrachinger Weg,48.9647245,12.055966,,
de:09375:102:0:2,,Großberg Gebrachinger Weg,48.9647068,12.0556875,,
de:09375:1020,,Bügerl,49.01751,11.7531798,,
de:09375:1020:0:1,,Bügerl,49.01751,11.7531619,,
de:09375:1021:0:1,,Kallmünz Alte Dinauer Straße,49.1607943,11.9486982,,
de:09375:1021:0:2,,Kallmünz Alte Dinauer Straße,49.1608237,11.948788,,
de:09375:1022:0:1,,Unterirading,48.9741952,12.0354664,,
de:09375:1023:0:1,,Abzw. Mannsdorf,48.8121199,12.1400663,,
de:09375:1023:0:2,,Abzw. Mannsdorf,48.8119838,12.140192,,
de:09375:1025:0:1,,Matting Schedlweg,48.9648188,12.012236,,
de:09375:1025:0:2,,Matting Schedlweg,48.9649191,12.0121372,,
de:09375:1026:0:1,,Matting Feuerwehrhaus,48.9643175,12.0049956,,
de:09375:1027:0:1,,Lorenzen [P+R],49.0667201,12.0895809,,
de:09375:1027:0:2,,Lorenzen [P+R],49.0675088,12.0898415,,
de:09375:1028:0:1,,Hainsacker Turl [P+R],49.0729584,12.047423,,
de:09375:1029:0:1,,Sinzing Dorfplatz,48.9910269,12.0352778,,
de:09375:1029:0:2,,Sinzing Dorfplatz,48.9909975,12.0351161,,
de:09375:103:0:1,,Dengling Gasthof Sax,48.9097044,12.370547,,
de:09375:103:0:2,,Dengling Gasthof Sax,48.9095982,12.3703943,,
de:09375:1030:0:1,,Probstberg Kapelle,49.0591389,12.1925369,,
de:09375:1031:0:1,,Probstberg Zeitlhofgarten,49.0669496,12.1930938,,
de:09375:1032:0:1,,Wenzenbach Lilienstraße,49.0707398,12.1956181,,
de:09375:1032:0:2,,Wenzenbach Lilienstraße,49.0706868,12.1954384,,
de:09375:1033:0:1,,Wenzenbach Grundschule,49.0734292,12.1943515,,
de:09375:1033:0:2,,Wenzenbach Grundschule,49.0733939,12.1947018,,
de:09375:1034:0:1,,Thalmassing Stadtberg,48.918312,12.1485284,,
de:09375:1034:0:2,,Thalmassing Stadtberg,48.9183592,12.1486811,,
de:09375:1036:0:1,,Kallmünz Schule,49.1631323,11.9612746,,
de:09375:1037:0:1,,Sinzing Feuerwehr,48.9983474,12.0323313,,
de:09375:1037:0:2,,Sinzing Feuerwehr,48.9982649,12.0322774,,
de:09375:1038:0:1,,Stöcklhof,49.138725,11.9661884,,
de:09375:1038:0:2,,Stöcklhof,49.1389718,11.9659458,,
de:09375:104:0:1,,Dengling Ortsausgang,48.9113044,12.3669448,,
de:09375:104:0:2,,Dengling Ortsausgang,48.911145,12.3672143,,
de:09375:1041:0:1,,Kallmünz Friedhofplatz,49.1609529,11.9585617,,
de:09375:1041:0:2,,Kallmünz Friedhofplatz,49.160947,11.958391,,
de:09375:1044:0:1,,Unterlaichling Feuerwehr,48.855138,12.1521935,,
de:09375:1045:0:1,,Unterlaichling Ortsmitte,48.8545587,12.1539901,,
de:09375:1046:0:1,,Mühlschlag,49.1320012,11.9662063,,
de:09375:1046:0:2,,Mühlschlag,49.1321011,11.9659997,,
de:09375:1047:0:1,,Walderlebniszentrum,49.0017185,12.0178056,,
de:09375:1048:0:1,,Hemau Förderschule,49.0503614,11.7867139,,
de:09375:1048:0:2,,Hemau Förderschule,49.0504732,11.7863546,,
de:09375:1049:0:1,,Hemau Stadtplatz,49.0521099,11.7822583,,
de:09375:1049:0:2,,Hemau Stadtplatz,49.0517037,11.7826266,,
de:09375:105:0:1,,Deuerling Abzw. Undorf,49.0363236,11.9071062,,
de:09375:105:0:2,,Deuerling Abzw. Undorf,49.0362411,11.9069804,,
de:09375:105:0:3,,Deuerling Abzw. Undorf,49.0353342,11.9075733,,
de:09375:1050:0:1,,Hemau Beratzhausener Straße,49.0558247,11.7847736,,
de:09375:1050:0:2,,Hemau Beratzhausener Straße,49.0561426,11.7848365,,
de:09375:1051:0:1,,Hemau Krankenhaus,49.0577261,11.780794,,
de:09375:1051:0:2,,Hemau Krankenhaus,49.0577556,11.7807132,,
de:09375:1052:0:1,,Hemau Einkaufszentrum,49.048707,11.7924632,,
de:09375:1052:0:2,,Hemau Einkaufszentrum,49.0486952,11.7934693,,
de:09375:1053:0:1,,Kühthal,49.117181,12.0910093,0,de:09375:1053_Parent
de:09375:1053:0:2,,Kühthal,49.1169693,12.0909464,0,de:09375:1053_Parent
de:09375:1053:0:3,,Kühthal,49.117081,12.0906679,0,de:09375:1053_Parent
de:09375:1053:0:4,,Kühthal,49.1170105,12.0905421,0,de:09375:1053_Parent
de:09375:1053_Parent,,Kühthal,49.1169281,12.0907128,1,
de:09375:1056:0:1,,Sandhof bei Wenzenbach,49.079649,12.1728638,,
de:09375:1056:0:2,,Sandhof bei Wenzenbach,49.0794784,12.1728368,,
de:09375:1057:0:1,,Neutraubling Mittelschule,48.9871423,12.2039724,,
de:09375:1058:0:1,,Roflach,48.8061388,12.1845329,,
de:09375:1061:0:1,,Obertraubling Realschule,48.970439,12.1750467,0,de:09375:1061_Parent
de:09375:1061:0:2,,Obertraubling Realschule,48.9703033,12.1749299,0,de:09375:1061_Parent
de:09375:1061:0:3,,Obertraubling Realschule,48.9701736,12.1748221,0,de:09375:1061_Parent
de:09375:1061:0:4,,Obertraubling Realschule,48.9700203,12.1747143,0,de:09375:1061_Parent
de:09375:1061:0:5,,Obertraubling Realschule,48.9701146,12.1746065,0,de:09375:1061_Parent
de:09375:1061:0:6,,Obertraubling Realschule,48.970262,12.1747143,0,de:09375:1061_Parent
de:09375:1061:0:7,,Obertraubling Realschule,48.9703859,12.1747951,0,de:09375:1061_Parent
de:09375:1061_Parent,,Obertraubling Realschule,48.9704331,12.1749299,1,
de:09375:1062:0:1,,Kiefenholz Maisteig,48.9936264,12.3530927,,
de:09375:1062:0:2,,Kiefenholz Maisteig,48.9935497,12.3528502,,
de:09375:1063:0:1,,Lehenfelden Am Birkenhain,49.1384841,12.3163157,,
de:09375:1063:0:2,,Lehenfelden Am Birkenhain,49.1383665,12.3162708,,
de:09375:1064:0:1,,Sünching St. Annahof,48.8858637,12.3616896,,
de:09375:1064:0:2,,Sünching St. Annahof,48.8858282,12.3613572,,
de:09375:1067:0:1,,Abzw. Regendorf,49.088139,12.1075652,,
de:09375:1068:0:1,,Obertraubling Am Bergacker,48.9726974,12.158347,,
de:09375:1068:0:2,,Obertraubling Am Bergacker,48.9726562,12.1582751,,
de:09375:107:2:1,,Deuerling Bahnhof,49.0414174,11.91414,,
de:09375:107:2:2,,Deuerling Bahnhof,49.041335,11.9140322,,
de:09375:1072:0:1,,Zeinberg,49.1125123,11.9076272,,
de:09375:1075,,Matting An der Donau,48.9656445,12.0071246,,
de:09375:1077:0:1,,Unterheising Ort,48.9971274,12.2262506,,
de:09375:1078:0:1,,Tegernheim M.-Luther-Kirche,49.0239017,12.164222,,
de:09375:1078:0:2,,Tegernheim M.-Luther-Kirche,49.0237662,12.1643926,,
de:09375:1079:0:1,,Tenacker,48.9527213,12.1080683,,
de:09375:108:0:1,,Diesenbach Buchenloher Str.,49.1315839,12.1192253,,
de:09375:108:0:2,,Diesenbach Buchenloher Str.,49.1317543,12.1195398,,
de:09375:1080:0:1,,Ferneichlberg,49.1415048,12.0734203,,
de:09375:1081:0:1,,Zeitlarn Schule,49.0789783,12.1100266,,
de:09375:1083:0:1,,Oberlaichling,48.8617515,12.1632697,,
de:09375:1084:0:1,,Viehhausen Grundschule Bstg 1,48.9819544,11.9617058,,
de:09375:1085:0:1,,Baiern Ort,49.0785958,12.0372451,,
de:09375:1085:0:2,,Baiern Ort,49.0785546,12.0375954,,
de:09375:1087:0:1,,Hauzendorf Am Mühlberg,49.1213083,12.2610783,,
de:09375:1087:0:2,,Hauzendorf Am Mühlberg,49.121467,12.2609705,,
de:09375:1088:0:1,,Sinzing Abzw. Bahnhof,48.9926538,12.0370834,,
de:09375:1088:0:2,,Sinzing Abzw. Bahnhof,48.9926892,12.0369217,,
de:09375:1089:0:1,,Edlhausen Lohbergstraße,49.0612286,11.9178051,,
de:09375:109:0:1,,Diesenbach Siedlung,49.1276984,12.1189648,,
de:09375:109:0:2,,Diesenbach Siedlung,49.1278807,12.1188211,,
de:09375:1090:0:1,,Wöhrhof,49.1370442,12.1359699,,
de:09375:1090:0:2,,Wöhrhof,49.1371499,12.1366437,,
de:09375:1091:0:1,,Neueglofsheim Kreuzung Bstg 1,48.8984262,12.1787208,,
de:09375:1092:0:1,,Neutraubling Am Weiheracker,48.9828623,12.2065146,,
de:09375:1092:0:2,,Neutraubling Am Weiheracker,48.9829331,12.2064607,,
de:09375:1094:0:1,,Wenzenbach Gemeindezentrum/FFW,49.0756477,12.1949893,,
de:09375:1095:0:1,,Fußenberg Sandhofstraße,49.07889,12.1728099,,
de:09375:1095:0:2,,Fußenberg Sandhofstraße,49.0788547,12.1728278,,
de:09375:1097:0:1,,Kareth In der Pfeifing,49.0445501,12.0794749,,
de:09375:1097:0:2,,Kareth In der Pfeifing,49.0454156,12.0785676,,
de:09375:1098:0:1,,Lappersdorf Gymnasium,49.0458984,12.0825471,,
de:09375:1099:0:1,,Lappersdorf Mittelschule,49.0485715,12.0885748,,
de:09375:110:0:1,,Dinau,49.1629208,11.8929757,,
de:09375:110:0:2,,Dinau,49.1631029,11.8926523,,
de:09375:1100:0:1,,Eichhof,49.076701,12.2865995,,
de:09375:1100:0:2,,Eichhof,49.076654,12.2867881,,
de:09375:1101:0:1,,Neutraubling Feuerwehr,48.9875667,12.1948006,,
de:09375:1101:0:2,,Neutraubling Feuerwehr,48.9875903,12.1946209,,
de:09375:1103:0:1,,Altenthann Schule,49.0930864,12.3055359,,
de:09375:111:0:1,,Donaustauf Schule,49.0340032,12.2083652,,
de:09375:111:0:2,,Donaustauf Schule,49.0344508,12.2085808,,
de:09375:1111:0:1,,Schwaighausen Wendeplatz,49.095504,12.0334901,,
de:09375:1112:0:1,,Buchhausen Kirche,48.8146458,12.1725493,,
de:09375:1113:0:1,,Ehringer Au,48.9029969,12.3306528,,
de:09375:1114:0:1,,Viergstetten,48.9971156,11.8957425,,
de:09375:1115:0:1,,Barbing Friesheimer Str.,49.0033509,12.2031729,,
de:09375:1115:0:2,,Barbing Friesheimer Str.,49.0032861,12.203146,,
de:09375:1116:0:1,,Unterlichtenwald Nord,49.051845,12.2606651,,
de:09375:1130:0:2,,Neutraubling Guggenberger See,48.9858984,12.215363,,
de:09375:1131:0:1,,Oberheising Industriegebiet West,48.9894354,12.2208787,,
de:09375:1131:0:2,,Oberheising Industriegebiet West,48.9893529,12.2208787,,
de:09375:1132:0:1,,Oberheising Industriegebiet Ost,48.9888577,12.2251188,,
de:09375:1132:0:2,,Oberheising Industriegebiet Ost,48.9888047,12.2251277,,
de:09375:1133:0:1,,Rosenhof Gewerbegebiet West,48.9876434,12.238306,,
de:09375:1133:0:2,,Rosenhof Gewerbegebiet West,48.9875844,12.2382252,,
de:09375:1134:0:1,,Rosenhof Gewerbegebiet Ost,48.9889756,12.2431749,,
de:09375:1134:0:2,,Rosenhof Gewerbegebiet Ost,48.988787,12.2430581,,
de:09375:1135:0:1,,Barbing Am Sarchinger Feld Mitte,49.0019189,12.2179412,,
de:09375:1135:0:2,,Barbing Am Sarchinger Feld Mitte,49.0019307,12.2180131,,
de:09375:114:0:1,,Eberhof,49.129844,12.2375245,,
de:09375:114:0:2,,Eberhof,49.1297441,12.2375245,,
de:09375:115:0:1,,Edlhausen Gde. Regenstauf,49.1100603,12.1107812,,
de:09375:115:0:2,,Edlhausen Gde. Regenstauf,49.1108365,12.1115358,,
de:09375:116:0:1,,Egglfing,48.9447569,12.1709773,,
de:09375:116:0:2,,Egglfing,48.945341,12.1708156,,
de:09375:117:1:1,,Eggmühl Bahnhof,48.8367586,12.1821793,,
de:09375:118:0:1,,Eggmühl Seniorenheim,48.8434868,12.1815505,,
de:09375:119:0:25,,Eggmühl Zaitzkofener Str.,48.8392359,12.1854042,,
de:09375:119:0:N,,Eggmühl Zaitzkofener Str.,48.8395375,12.1847844,,
de:09375:119:0:S,,Eggmühl Zaitzkofener Str.,48.8395611,12.1846407,,
de:09375:12:0:1,,Abzw. Giffa,48.9943455,12.3654087,,
de:09375:12:0:2,,Abzw. Giffa,48.9941922,12.3654805,,
de:09375:120:0:1,,Eglsee,49.0772895,11.9099179,,
de:09375:120:0:2,,Eglsee,49.0770423,11.9099987,,
de:09375:121:0:1,,Ehring Kirche,48.8995483,12.3297635,,
de:09375:121:0:2,,Ehring Kirche,48.8996841,12.3293682,,
de:09375:122:0:1,,Reiterberg,49.1176219,12.0400299,,
de:09375:122:0:2,,Reiterberg,49.1176748,12.0400389,,
de:09375:123:0:1,,Eilsbrunn Brücke,49.0012411,11.9666645,,
de:09375:123:0:2,,Eilsbrunn Brücke,49.0016478,11.966907,,
de:09375:124:0:1,,Eilsbrunn Kirche,49.0045354,11.9752074,,
de:09375:124:0:2,,Eilsbrunn Kirche,49.0046768,11.9750637,,
de:09375:125:0:1,,Eilsbrunn Marksteinstraße,49.0042054,11.9832833,,
de:09375:125:0:2,,Eilsbrunn Marksteinstraße,49.0043586,11.9833641,,
de:09375:1253:0:1,,Pettendorf Grundschule,49.05659,12.0007465,,
de:09375:1253:0:2,,Pettendorf Grundschule,49.05659,12.0007915,,
de:09375:126:0:1,,Einhausen,49.063012,12.0601611,,
de:09375:126:0:2,,Einhausen,49.0630062,12.0603857,,
de:09375:127:0:1,,Oppersdorf Am Kirchengraben,49.0606576,12.0611313,,
de:09375:128:0:1,,Eisenhammer Pumpstation,49.0629767,11.8990393,,
de:09375:129:0:1,,Eitlbrunn Kirche,49.1172398,12.0645988,0,de:09375:129_Parent
de:09375:129:0:2,,Eitlbrunn Kirche,49.1172868,12.0648054,0,de:09375:129_Parent
de:09375:129:0:3,,Eitlbrunn Kirche,49.1145409,12.0662786,0,de:09375:129_Parent
de:09375:129:0:4,,Eitlbrunn Kirche,49.1145997,12.0661259,0,de:09375:129_Parent
de:09375:129_Parent,,Eitlbrunn Kirche,49.1172515,12.0647066,1,
de:09375:130:0:1,,Eitlbrunn Leber,49.1119537,12.0668176,,
de:09375:130:0:2,,Eitlbrunn Leber,49.112036,12.0672398,,
de:09375:13017:0:0,,Neutraubling Friedhofweg,48.9881503,12.2046731,,
de:09375:13018:0:1,,Neutraubling Gymnasium,48.9856744,12.2052211,0,de:09375:13018_Parent
de:09375:13018:0:11,,Neutraubling Gymnasium,48.985869,12.208446,0,de:09375:13018_Parent
de:09375:13018:0:12,,Neutraubling Gymnasium,48.9860104,12.208446,0,de:09375:13018_Parent
de:09375:13018:0:13,,Neutraubling Gymnasium,48.9861224,12.2085538,0,de:09375:13018_Parent
de:09375:13018:0:14,,Neutraubling Gymnasium,48.9862403,12.2085898,0,de:09375:13018_Parent
de:09375:13018:0:2,,Neutraubling Gymnasium,48.9856331,12.2055804,0,de:09375:13018_Parent
de:09375:13018:0:3,,Neutraubling Gymnasium,48.9855683,12.2058409,0,de:09375:13018_Parent
de:09375:13018:0:4,,Neutraubling Gymnasium,48.9855388,12.2061823,0,de:09375:13018_Parent
de:09375:13018:0:5,,Neutraubling Gymnasium,48.9854858,12.2064787,0,de:09375:13018_Parent
de:09375:13018:0:6,,Neutraubling Gymnasium,48.9854327,12.2068291,0,de:09375:13018_Parent
de:09375:13018:0:7,,Neutraubling Gymnasium,48.9853856,12.2071435,0,de:09375:13018_Parent
de:09375:13018:0:8,,Neutraubling Gymnasium,48.9853207,12.2074758,0,de:09375:13018_Parent
de:09375:13018:0:9,,Neutraubling Gymnasium,48.9852853,12.2077723,0,de:09375:13018_Parent
de:09375:13018_Parent,,Neutraubling Gymnasium,48.9854504,12.2064338,1,
de:09375:13041:0:1,,Neutraubling Rathaus,48.9940213,12.195654,,
de:09375:13041:0:2,,Neutraubling Rathaus,48.9936382,12.1966422,,
de:09375:13042:0:1,,Neutraubling Neudeker Straße,48.9895533,12.200442,,
de:09375:13042:0:2,,Neutraubling Neudeker Straße,48.9891819,12.2002354,,
de:09375:13043:0:2,,Neutraubling Haidauer Straße,48.9855506,12.2083831,,
de:09375:13043:0:3,,Neutraubling Haidauer Straße,48.9851674,12.2083472,,
de:09375:13044:0:1,,Neutraubling Pommernstr.,48.9807694,12.1931836,,
de:09375:13044:0:2,,Neutraubling Pommernstr.,48.9807576,12.1933813,,
de:09375:13045:0:1,,Obertr. Abzw. Niedertr.,48.9639755,12.1686866,,
de:09375:13045:0:2,,Obertr. Abzw. Niedertr.,48.9631852,12.1686507,,
de:09375:13045:0:3,,Obertr. Abzw. Niedertr.,48.96348,12.1697646,,
de:09375:13050:0:1,,Obertraubling Kirche,48.9662991,12.1652191,,
de:09375:13050:0:2,,Obertraubling Kirche,48.9667414,12.1655155,,
de:09375:13050:0:3,,Obertraubling Kirche,48.9661753,12.1657581,,
de:09375:13051:0:1,,Barbing West,49.0046356,12.190318,,
de:09375:13051:0:2,,Barbing West,49.0047299,12.190354,,
de:09375:13052:0:1,,Neutraubling Hartinger Straße,48.9816714,12.1854761,,
de:09375:13052:0:2,,Neutraubling Hartinger Straße,48.981807,12.1857366,,
de:09375:13054:0:1,,Barbing Regensburger Str.,49.0034864,12.1969296,,
de:09375:13054:0:2,,Barbing Regensburger Str.,49.0031859,12.1982412,,
de:09375:13060:0:1,,Neutraubling Keplerstraße,48.9856449,12.200451,,
de:09375:13060:0:2,,Neutraubling Keplerstraße,48.9859751,12.2000737,,
de:09375:131:0:1,,Elendhalbstraße,49.1479746,12.2149139,,
de:09375:131:0:2,,Elendhalbstraße,49.1479629,12.2149678,,
de:09375:132:0:1,,Eltheim,48.9856862,12.3104767,,
de:09375:132:0:2,,Eltheim,48.9855742,12.310315,,
de:09375:133:0:1,,Endlfeld,49.0580205,11.9241382,,
de:09375:133:0:2,,Endlfeld,49.0581912,11.9239406,,
de:09375:135:0:1,,Erlbach,49.1158698,12.2517179,,
de:09375:135:0:2,,Erlbach,49.1159345,12.2519514,,
de:09375:136:0:1,,Erlbach Herrenholz,49.1142352,12.2499841,,
de:09375:136:0:2,,Erlbach Herrenholz,49.1144586,12.2504782,,
de:09375:137:0:1,,Erlbach Nerl,49.1097427,12.2572066,,
de:09375:137:0:2,,Erlbach Nerl,49.1099956,12.2573144,,
de:09375:138:0:1,,Ettersdorf,49.0167559,12.3622645,,
de:09375:138:0:2,,Ettersdorf,49.0166262,12.3622645,,
de:09375:139:0:1,,Hönighausen,49.0620938,12.0524446,,
de:09375:14:0:1,,Abzw. Grubhof,49.1357805,12.2235916,,
de:09375:14:0:2,,Abzw. Grubhof,49.1356924,12.2235737,,
de:09375:140:0:1,,Etterzhausen Schlossbr.,49.0308934,11.9857716,,
de:09375:140:0:2,,Etterzhausen Schlossbr.,49.0311114,11.9852596,,
de:09375:141:0:1,,Fidelhof,49.1380491,12.1481062,,
de:09375:141:0:2,,Fidelhof,49.1378728,12.1483757,,
de:09375:142:0:1,,Forstmühle,49.0846855,12.3232687,,
de:09375:142:0:2,,Forstmühle,49.0845502,12.3231968,,
de:09375:143:0:1,,Forstmühle Schlecht,49.0842384,12.3202503,,
de:09375:143:0:2,,Forstmühle Schlecht,49.0841089,12.3202234,,
de:09375:144:0:1,,Frauenberg,49.076295,11.9086333,,
de:09375:144:0:2,,Frauenberg,49.0764539,11.9085974,,
de:09375:145:0:1,,Frauenzell,49.0570374,12.368445,,
de:09375:145:0:2,,Frauenzell,49.0569373,12.3683102,,
de:09375:146:0:1,,Friesheim Ost,49.0111468,12.2810838,,
de:09375:146:0:2,,Friesheim Ost,49.0109995,12.2812365,,
de:09375:147:0:1,,Friesheim West,49.0085896,12.2736817,,
de:09375:147:0:2,,Friesheim West,49.0085542,12.274023,,
de:09375:149:0:1,,Fußenberg Kürner Straße,49.0777014,12.1675367,,
de:09375:149:0:2,,Fußenberg Kürner Straße,49.0776778,12.1676715,,
de:09375:15:0:N,,Neutraubling Abzw. Harting,48.9829154,12.1846047,,
de:09375:150:0:1,,Gailsbach,48.8860468,12.2321795,,
de:09375:150:0:2,,Gailsbach,48.886094,12.23244,,
de:09375:1505:0:1,,Etterzhausen Domspatzenstraße,49.0316886,11.9715962,,
de:09375:152:0:1,,Gansbach,48.8681633,12.2563442,,
de:09375:152:0:2,,Gansbach,48.868246,12.2563172,,
de:09375:153:0:1,,Gebelkofen Abzw.,48.9351626,12.1658838,,
de:09375:153:0:2,,Gebelkofen Abzw.,48.935257,12.1657491,,
de:09375:154:0:1,,Gebelkofen Ortsmitte,48.9341771,12.1594699,,
de:09375:154:0:2,,Gebelkofen Ortsmitte,48.9342951,12.1592453,,
de:09375:156:0:1,,Geisling Irlbruck,48.9737883,12.3135489,,
de:09375:156:0:2,,Geisling Irlbruck,48.9736645,12.3133423,,
de:09375:157:0:1,,Geisling Ost,48.9706336,12.331075,,
de:09375:157:0:2,,Geisling Ost,48.9705156,12.3308954,,
de:09375:158:0:1,,Geisling West,48.9699554,12.3248677,,
de:09375:158:0:2,,Geisling West,48.9698669,12.3249485,,
de:09375:159:0:1,,Gengkofen,48.9699259,12.2420789,,
de:09375:159:0:2,,Gengkofen,48.970038,12.2420789,,
de:09375:160:0:1,,Glapfenberg,49.1679664,12.2209775,,
de:09375:160:0:2,,Glapfenberg,49.1679312,12.2209506,,
de:09375:16001:0:1,,Eibrunn,49.0549299,12.0022647,,
de:09375:16001:0:2,,Eibrunn,49.0545884,12.0028037,,
de:09375:16004:0:0,,Kneiting,49.0275126,12.0361132,,
de:09375:16020:0:1,,Hainsacker Gasth. Prößl,49.0726936,12.0549868,,
de:09375:16020:0:2,,Hainsacker Gasth. Prößl,49.0726995,12.0553012,,
de:09375:16021:0:1,,Hainsacker Siedlung,49.0724818,12.0614367,,
de:09375:16021:0:2,,Hainsacker Siedlung,49.07257,12.0614098,,
de:09375:16022:0:1,,Hainsacker Am Schlag,49.0738941,12.0749025,,
de:09375:16022:0:2,,Hainsacker Am Schlag,49.0738706,12.0742737,,
de:09375:16024:0:1,,Lorenzen Regenstrand,49.0650368,12.0897157,,
de:09375:16024:0:2,,Lorenzen Regenstrand,49.0651957,12.0898594,,
de:09375:16025:0:1,,Pielmühle,49.0598629,12.0912069,,
de:09375:16025:0:2,,Pielmühle,49.0606811,12.0912518,,
de:09375:16026:0:1,,Lappersdorf Industriestr.,49.0538172,12.0906589,,
de:09375:16026:0:2,,Lappersdorf Industriestr.,49.0537701,12.0907128,,
de:09375:16030:0:1,,Lappersdorf Oppersdorfer Str. Bstg 1,49.0507087,12.0902996,0,de:09375:16030_Parent
de:09375:16030:0:2,,Lappersdorf Oppersdorfer Str. Bstg 2,49.0506028,12.0902726,0,de:09375:16030_Parent
de:09375:16030:0:3,,Lappersdorf Oppersdorfer Str. Bstg 3,49.0505498,12.0904343,0,de:09375:16030_Parent
de:09375:16030:0:4,,Lappersdorf Oppersdorfer Str. Bstg 4,49.0506734,12.0901469,0,de:09375:16030_Parent
de:09375:16030:0:5,,Lappersdorf Oppersdorfer Str. Bstg 5,49.0506499,12.0906859,0,de:09375:16030_Parent
de:09375:16030_Parent,,Lappersdorf Oppersdorfer Str.,49.0506145,12.0903804,1,
de:09375:16032:0:1,,Lappersdorf Hornauer,49.0440201,12.0932461,,
de:09375:16032:0:2,,Lappersdorf Hornauer,49.0440437,12.0933808,,
de:09375:16033:0:1,,Neukareth Bstg 1,49.0405989,12.0945666,,
de:09375:16033:0:2,,Neukareth Bstg 2,49.0411407,12.0944049,,
de:09375:16033:0:3,,Neukareth Bstg 3,49.0408109,12.0936593,,
de:09375:16037:0:1,,Lappersdorf Ludw.-Thoma-Str.,49.0530578,12.0807685,,
de:09375:16037:0:2,,Lappersdorf Ludw.-Thoma-Str.,49.0529047,12.0808763,,
de:09375:16038:0:1,,Lappersdorf Kapelle,49.0470525,12.0917279,,
de:09375:16038:0:2,,Lappersdorf Kapelle,49.0468876,12.0919345,,
de:09375:16039:0:1,,Pielmühle Rodauer Weg,49.0596451,12.0886736,,
de:09375:16039:0:2,,Pielmühle Rodauer Weg,49.0597746,12.0893923,,
de:09375:16040:0:1,,Regendorf Schloß,49.0926923,12.1084186,,
de:09375:16041:0:1,,Lorenzen Kallmünzer Str.,49.0700277,12.0872184,,
de:09375:16041:0:2,,Lorenzen Kallmünzer Str.,49.0700983,12.0873262,,
de:09375:16051:0:1,,Regendorf Ortsmitte,49.089745,12.108733,,
de:09375:16052:0:1,,Rodau Altenheim,49.0612698,12.0841731,,
de:09375:16053:0:1,,Oppersdorf Feuerwehr,49.0562839,12.067159,,
de:09375:16053:0:2,,Oppersdorf Feuerwehr,49.0568961,12.0667637,,
de:09375:16054:0:1,,Oppersdorf Süd,49.0500964,12.0728902,,
de:09375:16054:0:2,,Oppersdorf Süd,49.0505145,12.0727465,,
de:09375:16055:0:1,,Kareth Hauptstraße,49.0394094,12.0861404,,
de:09375:16055:0:2,,Kareth Hauptstraße,49.0395331,12.0869489,,
de:09375:16056:0:1,,Lappersdorf Goethestraße,49.0517979,12.075711,,
de:09375:16056:0:2,,Lappersdorf Goethestraße,49.0517449,12.0766632,,
de:09375:161:0:2,,Gmünd,48.9719957,12.4293597,,
de:09375:162:0:1,,Gnadenhof,49.1647065,12.2012056,,
de:09375:162:0:2,,Gnadenhof,49.1646948,12.2013134,,
de:09375:164:0:1,,Gonnersdorf Angerstraße Bstg 1,49.0668143,12.1541788,,
de:09375:164:0:2,,Gonnersdorf Angerstraße Bstg 2,49.0667554,12.1539273,,
de:09375:1655:0:1,,Kneiting Dorfplatz,49.0260223,12.0335261,,
de:09375:1656:0:1,,Schönleiten,49.1530394,12.0408204,,
de:09375:1656:0:2,,Schönleiten,49.1532098,12.0410989,,
de:09375:1658:0:1,,Richterkeller,49.163144,12.05328,,
de:09375:1658:0:2,,Richterkeller,49.1630618,12.0534597,,
de:09375:1659:0:1,,Kürnberg,49.1532451,12.059155,,
de:09375:1659:0:2,,Kürnberg,49.1533449,12.0591101,,
de:09375:166:0:1,,Grafenwinn,49.1711087,12.2041251,,
de:09375:166:0:2,,Grafenwinn,49.1711557,12.2041072,,
de:09375:1660:0:1,,Eichlberg,49.1366563,12.0631076,,
de:09375:1660:0:2,,Eichlberg,49.136762,12.063449,,
de:09375:1661:0:1,,Preßgrund,49.1276397,12.0955278,,
de:09375:1661:0:2,,Preßgrund,49.1278219,12.0953032,,
de:09375:167:0:1,,Graßlfing Regensburger Str.,48.9584372,12.0450694,,
de:09375:167:0:2,,Graßlfing Regensburger Str.,48.9584608,12.0448089,,
de:09375:1678:0:1,,Gewerbepark Wörth-Wiesent,49.0046886,12.3649236,,
de:09375:1678:0:2,,Gewerbepark Wörth-Wiesent,49.0045943,12.3650763,,
de:09375:168:0:1,,Regenstauf Gutenbergstr. Wendeplatz,49.1061202,12.118866,,
de:09375:17:0:1,,Abzw. Hohenwarth,49.0957393,12.005328,,
de:09375:17:0:2,,Abzw. Hohenwarth,49.0957217,12.0054986,,
de:09375:170:0:1,,Griesau,48.9483322,12.4127319,,
de:09375:170:0:2,,Griesau,48.9481611,12.4128397,,
de:09375:170:0:3,,Griesau,48.9482968,12.4134416,,
de:09375:17001:0:1,,Grünthal Feuerwehr,49.0533404,12.162075,,
de:09375:17001:0:2,,Grünthal Feuerwehr,49.0534169,12.1621019,,
de:09375:1702:0:1,,"Holzheim, Widlthal",49.1258291,11.9749559,,
de:09375:1702:0:2,,"Holzheim, Widlthal",49.1267109,11.9830407,,
de:09375:1703:0:1,,"Holzheim, Irnhüll",49.1264287,11.999974,,
de:09375:1708:0:1,,"Holzheim, Dorfplatz",49.1472225,11.9976024,,
de:09375:1709:0:1,,Holzheim Hirschbergersiedlung Bstg 1,49.1504013,11.9964885,,
de:09375:1709:0:2,,Holzheim Hirschbergersiedlung Bstg 2,49.1504483,11.9966233,,
de:09375:171:0:1,,Großberg Fischersäge,48.9720016,12.0657756,,
de:09375:171:0:2,,Großberg Fischersäge,48.971866,12.0657397,,
de:09375:1711:0:1,,Kallmünz Kindergarten,49.1624567,11.9609512,,
de:09375:1712:0:1,,Mettenbach,49.1459709,12.0446652,,
de:09375:1712:0:2,,Mettenbach,49.1460414,12.0446113,,
de:09375:1714:0:1,,Birkenzant,49.1499842,12.1751185,,
de:09375:1718:0:1,,Sünching Rathaus,48.8805412,12.3556619,,
de:09375:1719:0:1,,Sinzing Donaublick,48.9863406,12.0328523,,
de:09375:172:0:1,,Großberg Pentlinger Straße,48.9712233,12.0562265,,
de:09375:172:0:2,,Großberg Pentlinger Straße,48.9713058,12.0561995,,
de:09375:1720:0:1,,Viehhausen Gewerbegebiet Bstg 1,48.9741775,11.954645,,
de:09375:1720:0:2,,Viehhausen Gewerbegebiet Bstg 2,48.9745018,11.9554086,,
de:09375:1721:0:1,,Penk,49.04445,11.966934,,
de:09375:1726:0:1,,Deuerling Bachleiten,49.031506,11.8822408,,
de:09375:1727:0:1,,Kiefenholz Kreisverkehr,48.9942747,12.360953,,
de:09375:1727:0:2,,Kiefenholz Kreisverkehr,48.9948347,12.3604859,,
de:09375:173:0:1,,Großberg Kirche,48.9686816,12.0539627,,
de:09375:173:0:2,,Großberg Kirche,48.9687642,12.0537921,,
de:09375:174:0:1,,Großberg Grenzweg,48.9625954,12.0496059,,
de:09375:174:0:2,,Großberg Grenzweg,48.9626425,12.049579,,
de:09375:175:0:1,,Grünschlag,49.1474399,11.8733924,,
de:09375:175:0:2,,Grünschlag,49.1475751,11.8747039,,
de:09375:176:0:1,,Grünthal Brandlbergstraße,49.0546532,12.1589938,,
de:09375:176:0:2,,Grünthal Brandlbergstraße,49.0543059,12.1583829,,
de:09375:177:0:1,,Grünthal Irlbacher Straße,49.0557423,12.1620121,,
de:09375:177:0:2,,Grünthal Irlbacher Straße,49.0559248,12.1621828,,
de:09375:179:0:1,,Holz,49.092504,12.0787383,,
de:09375:179:0:2,,Holz,49.0931334,12.0792503,,
de:09375:18:0:1,,Abzw. Höhenberg,48.8712891,12.1901653,,
de:09375:18:0:2,,Abzw. Höhenberg,48.8713304,12.1900755,,
de:09375:180:0:1,,Hackenberg Feuerwehrhaus,49.1361684,12.2909832,,
de:09375:180:0:2,,Hackenberg Feuerwehrhaus,49.1361332,12.2904892,,
de:09375:18001:0:1,,Abzw. Lehmhof,49.0145877,12.348161,,
de:09375:18001:0:2,,Abzw. Lehmhof,49.0144817,12.3473884,,
de:09375:18002:0:1,,Bach Gasthof zur Post,49.021027,12.3053473,,
de:09375:18002:0:2,,Bach Gasthof zur Post,49.0209917,12.3055629,,
de:09375:18003:0:1,,Demling Ort,49.0144463,12.2687859,,
de:09375:18005:0:1,,Abzw. Demling,49.0218812,12.2699357,,
de:09375:18005:0:2,,Abzw. Demling,49.0217752,12.2699447,,
de:09375:18006:0:1,,Demling Gärtn. Meinzinger,49.0204497,12.2835362,,
de:09375:18006:0:2,,Demling Gärtn. Meinzinger,49.0203967,12.2838147,,
de:09375:18007:0:1,,Demling Steinbruch,49.0228355,12.2571167,,
de:09375:18007:0:2,,Demling Steinbruch,49.0228002,12.2574851,,
de:09375:18008:0:1,,Donaustauf Bayerwaldstraße,49.0288909,12.2029214,,
de:09375:18008:0:2,,Donaustauf Bayerwaldstraße,49.0287377,12.2024453,,
de:09375:18009:0:1,,Donaustauf Krankenhaus,49.0368418,12.2063799,,
de:09375:18010:0:2,,Donaust. Kriegerdenkm.,49.0297803,12.2106559,,
de:09375:18010:0:3,,Donaust. Kriegerdenkm.,49.0295623,12.2104043,,
de:09375:18011:0:1,,Donaustauf Schillerstraße,49.0319477,12.2124795,,
de:09375:18011:0:2,,Donaustauf Schillerstraße,49.0317298,12.2124525,,
de:09375:18012:0:2,,Donaustauf Walhallastraße,49.0299805,12.2158481,,
de:09375:18012:0:3,,Donaustauf Walhallastraße,49.0300217,12.2152732,,
de:09375:18014:0:0,,Hofdorf Dorfplatz,48.9895061,12.4516918,,
de:09375:18014:0:1,,Hofdorf Dorfplatz,48.9896063,12.4517188,,
de:09375:18014:0:2,,Hofdorf Dorfplatz,48.9894531,12.4516918,,
de:09375:18015:0:1,,Eidenzell,49.015336,12.4024642,,
de:09375:18015:0:2,,Eidenzell,49.0153006,12.4026079,,
de:09375:18016:0:1,,Abzw. Frengkofen,49.0189769,12.3189119,,
de:09375:18016:0:2,,Abzw. Frengkofen,49.0187,12.3195317,,
de:09375:18017:0:1,,Kirnberg,49.0411171,12.4173313,,
de:09375:18017:0:2,,Kirnberg,49.0411053,12.417457,,
de:09375:18018:0:1,,Kruckenberg Gh. Schindler,49.0144463,12.3420435,,
de:09375:18018:0:2,,Kruckenberg Gh. Schindler,49.0143697,12.3420525,,
de:09375:18020:0:1,,Kruckenberg Nr. 20,49.0150414,12.3366266,,
de:09375:18020:0:2,,Kruckenberg Nr. 20,49.0149648,12.3366356,,
de:09375:18021:0:1,,Bach West,49.0210211,12.2995891,,
de:09375:18021:0:2,,Bach West,49.0209563,12.2995801,,
de:09375:18022:0:1,,Reichenbach,49.0312409,12.4100819,,
de:09375:18022:0:2,,Reichenbach,49.0311762,12.4102346,,
de:09375:18023:0:1,,Sandweg Ausfl. Gaststätte,49.0191654,12.4064078,,
de:09375:18023:0:2,,Sandweg Ausfl. Gaststätte,49.0193598,12.4066593,,
de:09375:18026:0:1,,Sulzbach Neue Brücke,49.0284314,12.2343085,,
de:09375:18026:0:2,,Sulzbach Neue Brücke,49.028508,12.2337516,,
de:09375:18027:0:1,,Sulzbach Ost,49.0242198,12.247388,,
de:09375:18027:0:2,,Sulzbach Ost,49.0241432,12.2473251,,
de:09375:18028:0:1,,Sulzbach West,49.0293797,12.235629,,
de:09375:18028:0:2,,Sulzbach West,49.0293326,12.2356111,,
de:09375:18030:0:1,,Tegernheim Weinbergstr.,49.0250092,12.1771397,,
de:09375:18030:0:2,,Tegernheim Weinbergstr.,49.024909,12.1776697,,
de:09375:18031:0:1,,Tegernheim Gh. Federl,49.0246557,12.1713366,,
de:09375:18031:0:2,,Tegernheim Gh. Federl,49.0246852,12.1725314,,
de:09375:18032:0:1,,Vordergrub,49.0381668,12.4162533,,
de:09375:18032:0:2,,Vordergrub,49.0383023,12.4165587,,
de:09375:18033:0:1,,Wiedenrös,49.0278483,12.4079529,,
de:09375:18033:0:2,,Wiedenrös,49.028078,12.4081595,,
de:09375:18035:0:1,,Wiesent Schloßplatz,49.0071872,12.37909,,
de:09375:18035:0:2,,Wiesent Schloßplatz,49.0071518,12.3794134,,
de:09375:18036:0:1,,Wiesent Schule,49.0088017,12.3750296,,
de:09375:18037:0:1,,Wiesent West,49.0085955,12.3745984,,
de:09375:18037:0:2,,Wiesent West,49.0085071,12.3745715,,
de:09375:18038:0:1,,Wörth Marktplatz,49.0007402,12.4001555,,
de:09375:18038:0:2,,Wörth Marktplatz,49.0007107,12.4000207,,
de:09375:18039:0:1,,Wörth Petersplatz,49.0010761,12.406821,,
de:09375:18039:0:2,,Wörth Petersplatz,49.0008699,12.407333,,
de:09375:18040:0:1,,Wörth Polizei,48.9997265,12.3965622,,
de:09375:18040:0:2,,Wörth Polizei,48.9996617,12.3965083,,
de:09375:18041:0:1,,Wörth Regensburger Str.,49.0020721,12.3904806,,
de:09375:18041:0:2,,Wörth Regensburger Str.,49.0024139,12.3894386,,
de:09375:18042:0:1,,Wörth Siedlung,49.0035689,12.4063269,,
de:09375:18042:0:2,,Wörth Siedlung,49.0038931,12.4061652,,
de:09375:18043:0:1,,Wörth Tankstelle,48.9987895,12.405752,,
de:09375:18043:0:2,,Wörth Tankstelle,48.9987128,12.4058867,,
de:09375:18044:0:1,,Wörth Schule,49.0027852,12.4067761,,
de:09375:18044:0:2,,Wörth Schule,49.0028087,12.4067761,,
de:09375:18046:0:1,,Wörth Ostenstraße,48.9955537,12.409462,,
de:09375:18046:0:2,,Wörth Ostenstraße,48.9955066,12.4093632,,
de:09375:18047:0:1,,Wörth Reitfeld,49.0078943,12.4028684,,
de:09375:18047:0:2,,Wörth Reitfeld,49.0079296,12.4030031,,
de:09375:181:0:1,,Hackenberg Talstraße,49.136762,12.2875067,,
de:09375:181:0:2,,Hackenberg Talstraße,49.1365446,12.2877673,,
de:09375:182:1:1,,Hagelstadt Bahnhof,48.8960285,12.2144558,,
de:09375:182:1:2,,Hagelstadt Bahnhof,48.8953139,12.2142761,,
de:09375:183:0:1,,Hagelstadt Friedhof,48.8913864,12.2249481,,
de:09375:183:0:2,,Hagelstadt Friedhof,48.8912801,12.2247145,,
de:09375:184:0:1,,Hagelstadt Rathaus,48.8963711,12.2183634,,
de:09375:184:0:2,,Hagelstadt Rathaus,48.8962234,12.2182377,,
de:09375:185:0:1,,Hagelstadt Siedlung,48.8957687,12.2185431,,
de:09375:185:0:2,,Hagelstadt Siedlung,48.8956801,12.21857,,
de:09375:186:0:1,,Hagenau,49.1510124,12.1123802,,
de:09375:186:0:2,,Hagenau,49.1510065,12.1126497,,
de:09375:188:0:1,,Haidenkofen,48.8680628,12.3373632,,
de:09375:188:0:2,,Haidenkofen,48.8681514,12.3374171,,
de:09375:189:0:1,,Haimbuch Gh. Sigl,48.9038531,12.390813,,
de:09375:189:0:2,,Haimbuch Gh. Sigl,48.9038295,12.3904716,,
de:09375:19:0:1,,Haugenried Abzw. Irgertshofen Bstg 1,49.0005398,11.9040968,,
de:09375:19:0:2,,Haugenried Abzw. Irgertshofen Bstg 2,49.0006577,11.9038812,,
de:09375:190:0:1,,Hammermühle,49.0368771,12.2510441,,
de:09375:190:0:2,,Hammermühle,49.0368654,12.2512058,,
de:09375:191:0:1,,Harreshof,49.0675441,12.0507288,,
de:09375:191:0:2,,Harreshof,49.0676736,12.0509175,,
de:09375:1912:0:1,,Fahndorf,49.0646542,12.4095249,,
de:09375:1912:0:2,,Fahndorf,49.0645718,12.4095339,,
de:09375:1913:0:1,,Sünching Regensburger Straße,48.8809784,12.3523741,,
de:09375:1913:0:2,,Sünching Regensburger Straße,48.880937,12.3523921,,
de:09375:1914:0:1,,Fahnmühle,49.0629591,12.415903,,
de:09375:1914:0:2,,Fahnmühle,49.0627884,12.4159928,,
de:09375:1915:0:1,,Zumhof,49.0610696,12.431893,,
de:09375:1915:0:2,,Zumhof,49.0609872,12.4317762,,
de:09375:1916:0:1,,Dietersweg,49.039009,12.4004968,,
de:09375:1917:0:1,,Rupertsbühl,49.0461987,12.4037757,,
de:09375:1917:0:2,,Rupertsbühl,49.0461693,12.4038296,,
de:09375:1918:0:1,,Innenlehen,49.07001,12.3567489,,
de:09375:1919:0:1,,Stadl,49.0948923,12.4174121,,
de:09375:1919:0:2,,Stadl,49.0949099,12.4176637,,
de:09375:192,,Abzw. Buxlohe,49.1205734,11.8368489,,
de:09375:192:0:1,,Abzw. Buxlohe,49.1206145,11.8368759,,
de:09375:1920:0:1,,Frankenberg,49.0880802,12.3990595,,
de:09375:1920:0:2,,Frankenberg,49.0881625,12.3990146,,
de:09375:1921:0:1,,Schwaig,49.0785311,12.3957987,,
de:09375:1921:0:2,,Schwaig,49.0787017,12.3957987,,
de:09375:193:0:1,,Hartlmühle,49.0580263,11.9060012,,
de:09375:194:0:1,,Haslach Gem. Wenzenbach,49.1019328,12.1894916,,
de:09375:194:0:2,,Haslach Gem. Wenzenbach,49.1018681,12.1896802,,
de:09375:195:0:1,,Haugenried Feuerwehrhaus,49.0020662,11.9100975,,
de:09375:195:0:2,,Haugenried Feuerwehrhaus,49.0022076,11.9100526,,
de:09375:196:0:1,,Haugenried Gasthaus,49.002131,11.9133764,,
de:09375:196:0:2,,Haugenried Gasthaus,49.0022489,11.9133854,,
de:09375:197:0:1,,Hauserhof,49.0817319,12.3506134,,
de:09375:197:0:2,,Hauserhof,49.0816496,12.3504876,,
de:09375:198:0:1,,Hauzendorf ehem. Bahnhof,49.1240067,12.2608717,,
de:09375:198:0:2,,Hauzendorf ehem. Bahnhof,49.1239126,12.2612849,,
de:09375:199:0:1,,Hauzendorf Brücke,49.1257233,12.2614826,,
de:09375:199:0:2,,Hauzendorf Brücke,49.1256939,12.2618149,,
de:09375:20:0:1,,Abzw. Irnkofen,48.8689787,12.3154623,,
de:09375:20:0:2,,Abzw. Irnkofen,48.8692151,12.315085,,
de:09375:200:0:1,,Hauzenstein,49.1006683,12.1762684,,
de:09375:200:0:2,,Hauzenstein,49.100586,12.1764031,,
de:09375:20001:0:0,,Pentling,48.9801032,12.065039,,
de:09375:20002:0:1,,Pentling Ahornstraße,48.9866707,12.0582836,,
de:09375:20002:0:2,,Pentling Ahornstraße,48.9866648,12.0583375,,
de:09375:20003:0:2,,Pentling Hölkeringer Straße Bstg 2,48.9808283,12.0621913,,
de:09375:20003:0:3,,Pentling Hölkeringer Straße Bstg 3,48.9805807,12.0622901,,
de:09375:20003:0:4,,Pentling Hölkeringer Straße Bstg 1,48.9807281,12.0617961,,
de:09375:20005:0:1,,Pentling Ortsmitte,48.9832279,12.0583196,,
de:09375:20005:0:2,,Pentling Ortsmitte,48.9831453,12.0583645,,
de:09375:20006:0:1,,Pentling Rotsäulenweg,48.9907794,12.0647785,,
de:09375:20006:0:2,,Pentling Rotsäulenweg,48.9900661,12.0644191,,
de:09375:201:0:1,,Hechtfeld,49.0600748,12.3744906,,
de:09375:201:0:2,,Hechtfeld,49.0601926,12.3744727,,
de:09375:202:0:1,,Heilinghausen,49.1840868,12.1655066,,
de:09375:202:0:2,,Heilinghausen,49.1822783,12.1662611,,
de:09375:203:0:1,,Hellkofen,48.8935894,12.2999664,,
de:09375:205:0:1,,Hemau Kelheimer Straße,49.0500022,11.7852587,,
de:09375:206,,Hemau Post,49.0544589,11.7791142,,
de:09375:206:0:1,,Hemau Post,49.054453,11.779213,,
de:09375:206:0:2,,Hemau Post,49.0544354,11.7790423,,
de:09375:207:0:1,,Hemau Volksfestplatz [P+R],49.0540351,11.7779554,,
de:09375:208:0:2,,Herfurth,48.9546031,12.4370762,,
de:09375:209:0:1,,Bärnthal,49.009609,11.9058306,,
de:09375:21:0:1,,Abzw. Kaulhausen,49.0850738,12.0348646,,
de:09375:21:0:2,,Abzw. Kaulhausen,49.085621,12.0347657,,
de:09375:21:0:3,,Abzw. Kaulhausen,49.0853857,12.0340561,,
de:09375:210:0:1,,Heuweg,49.0655135,12.2715257,,
de:09375:210:0:2,,Heuweg,49.0647249,12.270825,,
de:09375:21001:0:1,,Adlersberg,49.0429956,12.0145537,,
de:09375:21001:0:2,,Adlersberg,49.0441909,12.0137182,,
de:09375:21002:0:1,,Adlersberg Kreuzung,49.0444323,12.0236446,,
de:09375:21002:0:2,,Adlersberg Kreuzung,49.0433076,12.0244441,,
de:09375:21003:0:1,,Aichahof,49.0348807,12.0310018,,
de:09375:21003:0:2,,Aichahof,49.0349337,12.0312084,,
de:09375:21004:0:1,,Adlersberg Talblick,49.0466521,12.0109784,,
de:09375:21004:0:2,,Adlersberg Talblick,49.0467581,12.0109155,,
de:09375:21005:0:1,,Dettenhofen,49.0811318,11.9930031,,
de:09375:21005:0:2,,Dettenhofen,49.0811848,11.9928683,,
de:09375:21006:0:1,,Duggendorf,49.1102308,11.9338221,,
de:09375:21006:0:2,,Duggendorf,49.1103249,11.9340017,,
de:09375:21006:0:3,,Duggendorf,49.1091017,11.9337053,,
de:09375:21007:0:2,,Aignhof,49.0807611,12.0072953,,
de:09375:21008:0:1,,Freiung,49.0931452,11.939203,,
de:09375:21008:0:2,,Freiung,49.0931393,11.9392748,,
de:09375:21009:0:1,,Adlersberg Fuchskurve,49.0448209,12.0174911,,
de:09375:21009:0:2,,Adlersberg Fuchskurve,49.0448386,12.0176888,,
de:09375:21010:0:1,,Heitzenhofen Ost,49.1258879,11.9431286,,
de:09375:21011:0:1,,Heitzenhofen West,49.123313,11.9366068,,
de:09375:21011:0:2,,Heitzenhofen West,49.1228838,11.9364182,,
de:09375:21015:0:1,,Hinterberg Gde. Pettendorf,49.0319124,12.0325739,,
de:09375:21015:0:2,,Hinterberg Gde. Pettendorf,49.0318653,12.0328164,,
de:09375:21016:0:1,,Neudorf,49.0688036,12.0081576,,
de:09375:21016:0:2,,Neudorf,49.0683504,12.0082744,,
de:09375:21018:0:1,,Pettendorf,49.0570256,12.0059747,,
de:09375:21018:0:2,,Pettendorf,49.0571492,12.0072863,,
de:09375:21020:0:1,,Pettendorf Siedlung,49.0603044,12.0054717,,
de:09375:21020:0:2,,Pettendorf Siedlung,49.0603221,12.0055974,,
de:09375:21021:0:1,,Pielenhofen Ost,49.0739235,11.9590018,,
de:09375:21021:0:2,,Pielenhofen Ost,49.0732468,11.9592354,,
de:09375:21022:0:1,,Pielenhofen West,49.0719874,11.9582113,,
de:09375:21022:0:2,,Pielenhofen West,49.0719992,11.9581215,,
de:09375:21023:0:1,,Reifenthal,49.0505792,12.0205274,0,de:09375:21023_Parent
de:09375:21023:0:2,,Reifenthal,49.0506616,12.0205185,0,de:09375:21023_Parent
de:09375:21023:0:3,,Reifenthal,49.0498904,12.0219648,0,de:09375:21023_Parent
de:09375:21023:0:4,,Reifenthal,49.0501906,12.0207341,0,de:09375:21023_Parent
de:09375:21023_Parent,,Reifenthal,49.0506145,12.0205185,1,
de:09375:21025:0:1,,Reinhardsleiten,49.0778014,11.9823041,,
de:09375:21025:0:2,,Reinhardsleiten,49.077772,11.9818999,,
de:09375:21026:0:1,,Rohrdorf,49.0793372,12.0114904,,
de:09375:21026:0:2,,Rohrdorf,49.0793843,12.0115443,,
de:09375:21027:0:1,,Reifenthal Blumenstraße,49.047812,12.0187398,,
de:09375:21027:0:2,,Reifenthal Blumenstraße,49.0478886,12.0187757,,
de:09375:21029:0:1,,Rohrdorf Kreuzung,49.074918,12.0157933,,
de:09375:21029:0:2,,Rohrdorf Kreuzung,49.0750593,12.0161257,,
de:09375:21030:0:1,,Schwetzendorf,49.0637007,12.0292501,,
de:09375:21030:0:2,,Schwetzendorf,49.0632239,12.0295375,,
de:09375:211:0:1,,Hinterappendorf,49.1358687,12.2746339,,
de:09375:211:0:2,,Hinterappendorf,49.1361567,12.275128,,
de:09375:212:0:1,,Hinterzhof,49.0881566,11.887999,,
de:09375:212:0:2,,Hinterzhof,49.088139,11.8878553,,
de:09375:213:0:N,,Abzw. Flinksberg,49.0817202,11.7702748,,
de:09375:213:0:S,,Abzw. Flinksberg,49.0820379,11.7709126,,
de:09375:214:0:1,,Hirschling Brücke,49.1923241,12.1651203,,
de:09375:214:0:2,,Hirschling Brücke,49.1911323,12.1639884,,
de:09375:215:0:1,,Hochdorf,49.1285567,11.9097921,,
de:09375:217:0:1,,Zeitlarn Hochstetten,49.0884331,12.1200698,,
de:09375:217:0:2,,Zeitlarn Hochstetten,49.088339,12.1203572,,
de:09375:218:0:1,,Schneckenreuth,49.1527868,12.165264,,
de:09375:219:0:1,,Hofdorf Winzerweg,48.9880796,12.4556893,,
de:09375:219:0:2,,Hofdorf Winzerweg,48.9880088,12.4556265,,
de:09375:22:0:1,,Abzw. Klingen,49.0440908,11.8058211,,
de:09375:22:0:2,,Abzw. Klingen,49.0442085,11.8065937,,
de:09375:223:0:1,,Hohengebraching,48.9619525,12.0770854,,
de:09375:223:0:2,,Hohengebraching,48.9617873,12.0768698,,
de:09375:224:0:1,,Hohenschambach,49.0391797,11.8472514,,
de:09375:224:0:2,,Hohenschambach,49.0393682,11.8468023,,
de:09375:225:0:1,,Hohenwarth bei Wolfsegg,49.0938982,11.9883228,,
de:09375:225:0:2,,Hohenwarth bei Wolfsegg,49.0938629,11.9875772,,
de:09375:226:0:1,,Holzheim Ost,49.1449719,12.0035313,,
de:09375:226:0:2,,Holzheim Ost,49.1451247,12.0033966,,
de:09375:227:0:1,,Holzheim Post,49.1486562,11.9984738,,
de:09375:227:0:2,,Holzheim Post,49.149091,11.9981594,,
de:09375:228:0:1,,Irgertshofen,49.0143108,11.8968384,,
de:09375:229:0:1,,Hubertushöhe bei Bernhardsw.,49.1298029,12.3021852,,
de:09375:229:0:2,,Hubertushöhe bei Bernhardsw.,49.1298205,12.3024727,,
de:09375:23:0:1,,Abzw. Kochenthal,49.0361881,11.8637265,,
de:09375:23:0:2,,Abzw. Kochenthal,49.0360468,11.8637265,,
de:09375:231:0:1,,Högelstein,49.1168164,12.2235198,,
de:09375:231:0:2,,Högelstein,49.1165577,12.2237803,,
de:09375:233:0:1,,Illkofen bei Barbing,49.0111704,12.304961,,
de:09375:233:0:2,,Illkofen bei Barbing,49.0110231,12.3048712,,
de:09375:234:0:1,,Inkofen,48.8384496,12.2458249,,
de:09375:237:0:1,,Irlbach Gh. Riederer,49.0669084,12.1631799,,
de:09375:237:0:2,,Irlbach Gh. Riederer,49.0669791,12.163126,,
de:09375:238:0:2,,Irling,48.9671483,12.4427087,,
de:09375:24:0:1,,Abzw. Kumpfhof,49.0250386,11.7453555,,
de:09375:24:0:2,,Abzw. Kumpfhof,49.02518,11.7452387,,
de:09375:240:0:1,,Heimberg Feuerwehr,49.023672,11.8958413,,
de:09375:243:0:1,,Judenberg Feuerwehrhaus Bstg 1,49.1200854,11.9645175,,
de:09375:243:0:2,,Judenberg Feuerwehrhaus Bstg 2,49.1199149,11.9643288,,
de:09375:244:0:1,,Judenberg Ort,49.1204088,11.9604661,,
de:09375:244:0:2,,Judenberg Ort,49.1204969,11.9604481,,
de:09375:245:0:1,,Kaiserhäusl,49.1802701,11.9439551,,
de:09375:245:0:2,,Kaiserhäusl,49.1802701,11.9441706,,
de:09375:246:0:1,,Deuerling Pfarrhof,49.0341268,11.905058,,
de:09375:248:0:1,,Kareth Pfälzer Weg,49.0418709,12.0823046,,
de:09375:248:0:2,,Kareth Pfälzer Weg,49.0419062,12.0824214,,
de:09375:248:0:3,,Kareth Pfälzer Weg,49.0428189,12.0828705,,
de:09375:249:0:1,,Karlstein,49.1521522,12.173816,,
de:09375:249:0:2,,Karlstein,49.1520994,12.1738609,,
de:09375:25:0:1,,Abzw. Lambertsneukirchen,49.1452246,12.2811557,,
de:09375:250:0:1,,Kaulhausen Ort,49.085721,12.0306335,,
de:09375:250:0:2,,Kaulhausen Ort,49.0859387,12.0301125,,
de:09375:251:0:1,,Kiefenholz Wendeplatz,48.9955773,12.3482149,,
de:09375:251:0:2,,Kiefenholz Wendeplatz,48.9955832,12.348134,,
de:09375:252:0:1,,Kirchberg,49.1596429,12.1968757,,
de:09375:252:0:2,,Kirchberg,49.1596664,12.1969476,,
de:09375:253:0:1,,Kleinanglhof,49.1734286,12.1619402,,
de:09375:253:0:2,,Kleinanglhof,49.1735695,12.1621738,,
de:09375:254:0:1,,Kleinramspau,49.1551134,12.1505137,,
de:09375:254:0:2,,Kleinramspau,49.1551428,12.1507742,,
de:09375:255,,Beratzhausen Abzw. Lammhof,49.1048675,11.8288449,,
de:09375:255:0:1,,Beratzhausen Abzw. Lammhof,49.1049028,11.8289168,,
de:09375:256:0:1,,Klosterberg,49.0887979,12.3494186,,
de:09375:256:0:2,,Klosterberg,49.088792,12.3491941,,
de:09375:257:0:1,,Kohlstetten,49.1382901,12.2949987,,
de:09375:257:0:2,,Kohlstetten,49.1381902,12.2954838,,
de:09375:259:0:1,,Kühschlag,49.0058495,11.959981,,
de:09375:259:0:2,,Kühschlag,49.0056786,11.9600439,,
de:09375:26:0:1,,Abzw. Lamlhof,49.1388602,12.2514484,,
de:09375:26:0:2,,Abzw. Lamlhof,49.1388719,12.2518167,,
de:09375:260:0:1,,Kürn Gasthaus,49.1200736,12.2126861,,
de:09375:260:0:2,,Kürn Gasthaus,49.120056,12.2128478,,
de:09375:262:0:1,,Kürn Straßenkreuzung,49.1167517,12.2147252,,
de:09375:262:0:2,,Kürn Straßenkreuzung,49.1167811,12.2149319,,
de:09375:262:0:4,,Kürn Straßenkreuzung,49.116593,12.2151295,,
de:09375:264:0:1,,Köfering Abzw. Bahnhof,48.9324067,12.2061463,,
de:09375:264:0:2,,Köfering Abzw. Bahnhof,48.9324067,12.2060655,,
de:09375:265:0:1,,Laaber Abzw. Frauenberg,49.0660727,11.8920145,,
de:09375:266:0:1,,Laaber Marktplatz,49.0652958,11.8864808,,
de:09375:267:0:1,,Lambertsneukirchen,49.1392246,12.2806346,,
de:09375:267:0:2,,Lambertsneukirchen,49.1390718,12.2806975,,
de:09375:268:0:1,,Langenerling Abzw. Hagelstadt,48.9069117,12.2395726,,
de:09375:268:0:2,,Langenerling Abzw. Hagelstadt,48.9068172,12.2403093,,
de:09375:269:0:1,,Langenerling Brücke,48.9062268,12.2576018,,
de:09375:269:0:2,,Langenerling Brücke,48.9063803,12.2563622,,
de:09375:27:0:1,,Abzw. Lindach,48.8204603,12.1603592,,
de:09375:270:0:1,,Langenerling Gasthaus,48.9067818,12.2487175,,
de:09375:270:0:2,,Langenerling Gasthaus,48.906705,12.2487804,,
de:09375:271:0:1,,Langenkreith Ost,49.0509913,11.7591177,,
de:09375:271:0:2,,Langenkreith Ost,49.0510326,11.7586865,,
de:09375:272:0:1,,Langenkreith West,49.0488129,11.7441697,,
de:09375:272:0:2,,Langenkreith West,49.0489896,11.7441877,,
de:09375:277:0:1,,Lappersdorf Am Hohensand,49.0503967,12.08526,,
de:09375:277:0:2,,Lappersdorf Am Hohensand,49.0503378,12.0855026,,
de:09375:278:0:1,,Lappersdorf Eichendorffstr.,49.0536524,12.0778669,,
de:09375:278:0:2,,Lappersdorf Eichendorffstr.,49.0535229,12.0780106,,
de:09375:279:0:1,,Laub Lerchenbuckl,49.0983568,12.1158567,,
de:09375:279:0:2,,Laub Lerchenbuckl,49.098245,12.1158477,,
de:09375:28:0:1,,Abzw. Loch,49.1032738,12.0795917,,
de:09375:28:0:2,,Abzw. Loch,49.1033384,12.0796725,,
de:09375:280:0:1,,Laub Ortsmitte,49.0979509,12.1116975,,
de:09375:280:0:2,,Laub Ortsmitte,49.0979451,12.1118142,,
de:09375:282:0:1,,Lehen,49.1384135,12.3042693,,
de:09375:282:0:2,,Lehen,49.138249,12.3039639,,
de:09375:283:0:1,,Lehenfelden Am Lehenholz,49.1402119,12.3200347,,
de:09375:283:0:2,,Lehenfelden Am Lehenholz,49.1399709,12.3201875,,
de:09375:284:0:1,,Leiterkofen,48.9765655,12.2892225,,
de:09375:284:0:2,,Leiterkofen,48.9763769,12.2891147,,
de:09375:285:0:1,,Leiterkofen Ort,48.9749146,12.288953,,
de:09375:286:0:1,,Loch Ortsmitte,49.1060026,12.0706714,,
de:09375:286:0:2,,Loch Ortsmitte,49.1060555,12.0707163,,
de:09375:287:0:1,,Loch Schlagweg,49.1055203,12.0745252,,
de:09375:287:0:2,,Loch Schlagweg,49.1056203,12.0745431,,
de:09375:288:0:1,,Lohhof bei Bernhardswald,49.1158463,12.2705825,,
de:09375:288:0:2,,Lohhof bei Bernhardswald,49.1159639,12.2705915,,
de:09375:289:0:1,,Loidsberg,49.066985,12.3839229,,
de:09375:289:0:2,,Loidsberg,49.0671085,12.383896,,
de:09375:29:0:1,,Abzw. Niedergebraching Bstg 1,48.963539,12.0566577,,
de:09375:29:0:2,,Abzw. Niedergebraching Bstg 2,48.9637101,12.056478,,
de:09375:29:0:3,,Abzw. Niedergebraching Bstg 3,48.9627546,12.0592089,,
de:09375:290:0:1,,Luckenpaint,48.8960404,12.1357274,,
de:09375:290:0:2,,Luckenpaint,48.8949005,12.1365718,,
de:09375:294:0:1,,Mangolding Bahnhof,48.948987,12.222325,,
de:09375:294:0:2,,Mangolding Bahnhof,48.9486508,12.2218938,,
de:09375:295:0:1,,Mangolding Gh. Schropp,48.9487747,12.2192528,,
de:09375:295:0:2,,Mangolding Gh. Schropp,48.9485918,12.2194414,,
de:09375:296:0:1,,Mannsdorf,48.8098186,12.1427343,,
de:09375:296:0:2,,Mannsdorf,48.8097654,12.1425995,,
de:09375:297:0:1,,Mariaort,49.0180579,12.0253155,,
de:09375:297:0:2,,Mariaort,49.0179577,12.0255939,,
de:09375:297:0:3,,Mariaort,49.0177692,12.0297352,,
de:09375:298:0:1,,Marienthal,49.2223846,12.1756036,,
de:09375:298:0:2,,Marienthal,49.222232,12.1757384,,
de:09375:299:0:1,,Bubach,49.1449367,12.0245699,,
de:09375:299:0:2,,Bubach,49.1449895,12.0246148,,
de:09375:3:0:1,,Abzw. Aichkirchen,49.0163022,11.7233019,,
de:09375:3:0:2,,Abzw. Aichkirchen,49.0163376,11.7229515,,
de:09375:30:0:1,,Zeitlarn Abzw. Ödenthal,49.0688977,12.1006751,,
de:09375:30:0:2,,Zeitlarn Abzw. Ödenthal,49.0688271,12.1008548,,
de:09375:300:0:1,,Mauth,49.147481,12.2398152,,
de:09375:300:0:2,,Mauth,49.147769,12.2399679,,
de:09375:301:0:1,,Mintraching Altersheim,48.9517597,12.2412076,,
de:09375:301:0:2,,Mintraching Altersheim,48.9516477,12.2406776,,
de:09375:302:0:1,,Mintraching Marktstraße,48.9548449,12.2405428,,
de:09375:302:0:2,,Mintraching Marktstraße,48.9547505,12.240462,,
de:09375:303,,Abzw. Rieb,49.0605045,11.7476103,,
de:09375:303:0:1,,Abzw. Rieb,49.0605457,11.7476282,,
de:09375:304:0:1,,Traidenloh,49.1517292,12.025019,,
de:09375:305:0:1,,Moosham Gh. Wild,48.9272721,12.2680043,,
de:09375:305:0:2,,Moosham Gh. Wild,48.9272603,12.2674114,,
de:09375:306:0:1,,Moosham Ost,48.9237071,12.2753076,,
de:09375:306:0:2,,Moosham Ost,48.9238311,12.2744632,,
de:09375:307:0:1,,Münchsried,49.1404881,12.1414497,,
de:09375:307:0:2,,Münchsried,49.1404352,12.1416563,,
de:09375:308:0:1,,Mötzing Gh. Gerl,48.8945639,12.3745804,,
de:09375:308:0:2,,Mötzing Gh. Gerl,48.8946525,12.3745804,,
de:09375:309:0:1,,Neuallkofen,48.9722375,12.2677348,,
de:09375:309:0:2,,Neuallkofen,48.9721844,12.2676719,,
de:09375:31:0:1,,Abzw. Pentling,48.9802565,12.0664134,,
de:09375:310:0:1,,Neudeuerling,49.033002,11.8948891,,
de:09375:310:0:2,,Neudeuerling,49.0331021,11.8947992,,
de:09375:311:0:1,,Neueglofsheim,48.9021288,12.1755228,,
de:09375:311:0:2,,Neueglofsheim,48.9018749,12.1755677,,
de:09375:312:0:1,,Neuhof bei Wischenhofen,49.1209026,11.8935416,,
de:09375:312:0:2,,Neuhof bei Wischenhofen,49.1208262,11.8934248,,
de:09375:314:0:1,,Neumühle,49.0425068,12.2557693,,
de:09375:314:0:2,,Neumühle,49.0424303,12.2558771,,
de:09375:315:0:1,,Neutraubling Am Braunfeld,48.9824025,12.203119,,
de:09375:315:0:2,,Neutraubling Am Braunfeld,48.9825086,12.2029304,,
de:09375:316:0:1,,Neutraubling Aussiger Straße,48.9876198,12.1968667,,
de:09375:316:0:2,,Neutraubling Aussiger Straße,48.9877789,12.1961391,,
de:09375:317:0:1,,Hirschhof,49.1515882,12.0067742,,
de:09375:317:0:2,,Hirschhof,49.1516058,12.006918,,
de:09375:318:0:1,,Neutraubling Borsigstraße,48.9852146,12.196175,,
de:09375:318:0:2,,Neutraubling Borsigstraße,48.9852618,12.1958247,,
de:09375:32:0:1,,Inkofen Abzw. Pinkofen,48.8374917,12.2222801,,
de:09375:32:0:2,,Inkofen Abzw. Pinkofen,48.8373794,12.2224148,,
de:09375:320:0:1,,Neutraubling Friedhof,48.9868652,12.2089221,,
de:09375:320:0:2,,Neutraubling Friedhof,48.987048,12.2088682,,
de:09375:323:0:1,,Neutraubling Gärtnersiedlung,48.9955891,12.1950971,,
de:09375:323:0:2,,Neutraubling Gärtnersiedlung,48.9954948,12.1948455,,
de:09375:326:0:1,,Niedergebraching Köhlerweg,48.9583959,12.0686951,,
de:09375:326:0:2,,Niedergebraching Köhlerweg,48.9584785,12.0685693,,
de:09375:33:0:1,,Zeitlarn Abzw. Regendorf,49.0922217,12.1187582,,
de:09375:33:0:2,,Zeitlarn Abzw. Regendorf,49.0922452,12.118902,,
de:09375:330:0:1,,Niedertraubling Kolw. Zwerger,48.9611798,12.1782447,,
de:09375:330:0:2,,Niedertraubling Kolw. Zwerger,48.9607788,12.1789543,,
de:09375:33051:0:1,,Zinzendorf Gh. Lutz,48.9829508,12.4743384,,
de:09375:33051:0:2,,Zinzendorf Gh. Lutz,48.9828505,12.4743204,,
de:09375:332:0:1,,Nittendorf Am Bernstein,49.0262226,11.9541509,,
de:09375:332:0:2,,Nittendorf Am Bernstein,49.0262462,11.9542318,,
de:09375:333:0:1,,Nittendorf Talstraße,49.0279543,11.9598732,,
de:09375:333:0:2,,Nittendorf Talstraße,49.0279131,11.9591905,,
de:09375:334:0:1,,Nittendorf Glockensiedlung,49.0299628,11.966377,,
de:09375:334:0:2,,Nittendorf Glockensiedlung,49.0299805,11.9661973,,
de:09375:335:0:1,,Oberachdorf,48.997039,12.3889355,,
de:09375:335:0:2,,Oberachdorf,48.9969388,12.3889445,,
de:09375:336:0:1,,Oberdeggenbach Ort,48.8242751,12.1848383,,
de:09375:336:0:2,,Oberdeggenbach Ort,48.8243402,12.1848652,,
de:09375:337:0:1,,Abzw. Oberdeggenbach,48.8261558,12.1769601,,
de:09375:337:0:2,,Abzw. Oberdeggenbach,48.8262741,12.1766726,,
de:09375:338:0:1,,Obereinbuch,49.0100627,11.9458415,,
de:09375:338:0:2,,Obereinbuch,49.0103396,11.9457337,,
de:09375:339:0:1,,Oberhinkofen,48.9569625,12.1280648,,
de:09375:339:0:2,,Oberhinkofen,48.9565909,12.1291787,,
de:09375:339:0:3,,Oberhinkofen,48.9537536,12.1309214,,
de:09375:34:0:1,,Abzw. Reichenstetten,48.9658922,11.9573759,,
de:09375:34:0:2,,Abzw. Reichenstetten,48.9659099,11.9576364,,
de:09375:341:0:1,,Oberlichtenwald,49.0564075,12.263387,,
de:09375:341:0:2,,Oberlichtenwald,49.0591271,12.2656867,,
de:09375:345:0:1,,Oberpfraundorf,49.1452128,11.8524347,,
de:09375:345:0:2,,Oberpfraundorf,49.1450483,11.8523718,,
de:09375:347:0:1,,Obersanding,48.888002,12.1630003,,
de:09375:347:0:2,,Obersanding,48.8881555,12.163126,,
de:09375:348:0:1,,Obertr. Realsch./Kreuzung B15,48.9703328,12.1743999,,
de:09375:348:0:2,,Obertr. Realsch./Kreuzung B15,48.9696311,12.173798,,
de:09375:349:0:1,,Obertraubling Abzw. Bahnhof,48.9654204,12.1716241,,
de:09375:349:0:2,,Obertraubling Abzw. Bahnhof,48.9654735,12.1713097,,
de:09375:35:0:1,,Abzw. Rosenhof,48.9899659,12.2434174,,
de:09375:35:0:2,,Abzw. Rosenhof,48.9892762,12.2449715,,
de:09375:350:0:1,,Obertraubling Edekastr.,48.9709402,12.1605568,,
de:09375:350:0:2,,Obertraubling Edekastr.,48.9709638,12.1603412,,
de:09375:351:0:1,,Obertr. Ernst-Frenzel-Straße,48.9739888,12.1568378,,
de:09375:351:0:2,,Obertr. Ernst-Frenzel-Straße,48.9740655,12.1565054,,
de:09375:352:0:1,,Obertraubling Sparkasse,48.9683809,12.1636291,,
de:09375:352:0:2,,Obertraubling Sparkasse,48.9683573,12.1635123,,
de:09375:353:0:1,,Obertr.Abzw.Niedertr.Ri.Neutr.,48.9639519,12.1694052,,
de:09375:354:0:1,,Oppersdorf Nord,49.0593155,12.0637184,,
de:09375:354:0:2,,Oppersdorf Nord,49.0594038,12.0637634,,
de:09375:355:0:1,,Oppersdorf Ortsmitte,49.0536583,12.0702761,,
de:09375:355:0:2,,Oppersdorf Ortsmitte,49.0536936,12.0703839,,
de:09375:356:0:1,,Orhalm,49.1010624,12.3121206,,
de:09375:356:0:2,,Orhalm,49.1009741,12.3122553,,
de:09375:357:0:1,,Papiermühle,49.0700924,11.8726648,,
de:09375:36:0:1,,Abzw. Sandheim,49.0994096,12.1236271,,
de:09375:36:0:2,,Abzw. Sandheim,49.0992979,12.123681,,
de:09375:361:0:1,,Pellndorf,49.0554538,11.7174988,,
de:09375:361:0:2,,Pellndorf,49.0556069,11.7175796,,
de:09375:363:0:1,,Pettenhof,49.0762303,11.9036926,,
de:09375:363:0:2,,Pettenhof,49.0760832,11.9037644,,
de:09375:365:0:1,,Petzkofen,48.877865,12.2881086,,
de:09375:365:0:2,,Petzkofen,48.8778,12.2883601,,
de:09375:366:0:1,,Petzkofen Wendeplatz,48.880429,12.2908575,,
de:09375:366:0:2,,Petzkofen Wendeplatz,48.8804467,12.2911629,,
de:09375:368:0:1,,Pfaffenfang,49.107214,12.3185885,,
de:09375:368:0:2,,Pfaffenfang,49.1072258,12.3187591,,
de:09375:369:0:1,,Pfaffenfang Kreuz,49.1027386,12.3179237,,
de:09375:369:0:2,,Pfaffenfang Kreuz,49.1026151,12.3179057,,
de:09375:370:0:1,,Pfakofen Kapelle,48.8587197,12.23297,,
de:09375:370:0:2,,Pfakofen Kapelle,48.8587847,12.2325029,,
de:09375:371:0:1,,Pfakofen Kirche,48.8569702,12.2249032,,
de:09375:371:0:2,,Pfakofen Kirche,48.8571003,12.2247684,,
de:09375:372:0:1,,Pfakofen Post,48.8581109,12.2274723,,
de:09375:372:0:2,,Pfakofen Post,48.858241,12.2274184,,
de:09375:374:0:1,,Pfatter Am Fuchsbühl,48.9544969,12.4032996,,
de:09375:374:0:2,,Pfatter Am Fuchsbühl,48.9544261,12.4031559,,
de:09375:375:0:1,,Pfatter Rathaus,48.965556,12.384408,,
de:09375:375:0:2,,Pfatter Rathaus,48.9652729,12.3840217,,
de:09375:376:0:1,,Pfatter Waldweg,48.9625718,12.3783444,,
de:09375:376:0:2,,Pfatter Waldweg,48.962442,12.3782635,,
de:09375:377:0:1,,Pfatter West,48.9601772,12.3716699,,
de:09375:377:0:2,,Pfatter West,48.9598999,12.3715801,,
de:09375:378:0:1,,Pfälzerhof,49.0613757,11.7044103,,
de:09375:378:0:2,,Pfälzerhof,49.0614934,11.7046439,,
de:09375:379:0:1,,Piesenkofen Einthaler Weg,48.9643057,12.1508999,,
de:09375:379:0:2,,Piesenkofen Einthaler Weg,48.9641819,12.1506484,,
de:09375:38:0:1,,Abzw. Thonlohe,49.0520334,11.7257543,,
de:09375:38:0:2,,Abzw. Thonlohe,49.0521865,11.7257812,,
de:09375:380:0:1,,Piesenkofen Erlenring,48.9635036,12.1455101,,
de:09375:380:0:2,,Piesenkofen Erlenring,48.9633857,12.1457526,,
de:09375:381:0:1,,Pillmannsberg,49.0989685,12.2291163,,
de:09375:381:0:2,,Pillmannsberg,49.0985156,12.2289635,,
de:09375:382:0:1,,Pinkofen,48.8258365,12.2182377,,
de:09375:382:0:2,,Pinkofen,48.8257892,12.2181748,,
de:09375:383:0:1,,Pittmannsdorf,49.0368418,11.8783062,,
de:09375:383:0:2,,Pittmannsdorf,49.0369007,11.8775785,,
de:09375:384:0:1,,Plitting,49.1493907,12.2593805,,
de:09375:384:0:2,,Plitting,49.1493026,12.2596769,,
de:09375:385:0:1,,Poign,48.927821,12.0993546,,
de:09375:385:0:2,,Poign,48.9278387,12.0991929,,
de:09375:386:0:1,,Pollenried Tankstelle,49.0303692,11.943425,,
de:09375:386:0:2,,Pollenried Tankstelle,49.0300983,11.9442425,,
de:09375:387:0:1,,Pollenried Kapelle,49.0328665,11.9387269,,
de:09375:387:0:2,,Pollenried Kapelle,49.0325543,11.9395264,,
de:09375:388:0:1,,Polzhausen,49.0481712,11.9315583,,
de:09375:388:0:2,,Polzhausen,49.047759,11.9314595,,
de:09375:39:0:1,,Abzw. Thumhausen,49.0111174,11.933867,,
de:09375:39:0:2,,Abzw. Thumhausen,49.0113707,11.9336963,,
de:09375:391:0:1,,Pöllhof,49.0766304,12.376934,,
de:09375:391:0:2,,Pöllhof,49.0765598,12.3768442,,
de:09375:393:0:1,,Rechberg,49.137673,11.8666999,,
de:09375:393:0:2,,Rechberg,49.1375613,11.8666191,,
de:09375:394:0:1,,Regendorf Am Riesen,49.0971981,12.103945,,
de:09375:395:0:1,,Regendorf Regensburger Str.,49.083956,12.1058315,,
de:09375:395:0:2,,Regendorf Regensburger Str.,49.0839972,12.1059842,,
de:09375:396:1:6,,Regenstauf Schulzentrum Bstg 6,49.1184333,12.1334816,0,de:09375:396_Parent
de:09375:396:1:7,,Regenstauf Schulzentrum Bstg 7,49.1183275,12.1334367,0,de:09375:396_Parent
de:09375:396:1:8,,Regenstauf Schulzentrum Bstg 8,49.1182452,12.1334367,0,de:09375:396_Parent
de:09375:396:2:0,,Regenstauf Schulzentrum Bstg CB,49.1194975,12.1365808,0,de:09375:396_Parent
de:09375:396:2:1,,Regenstauf Schulzentrum Bstg 1,49.1190565,12.1381439,0,de:09375:396_Parent
de:09375:396:2:2,,Regenstauf Schulzentrum Bstg 2,49.1191741,12.1377127,0,de:09375:396_Parent
de:09375:396:2:3,,Regenstauf Schulzentrum Bstg 3,49.1192799,12.1373444,0,de:09375:396_Parent
de:09375:396:2:4,,Regenstauf Schulzentrum Bstg 4,49.119374,12.13703,0,de:09375:396_Parent
de:09375:396_Parent,,Regenstauf Schulzentrum,49.1194034,12.1345416,1,
de:09375:397:0:1,,Regenstauf Regenbrücke,49.129074,12.1284421,,
de:09375:397:0:2,,Regenstauf Regenbrücke,49.1293738,12.1283612,,
de:09375:398:0:1,,Regenstauf Post,49.1220549,12.1273282,,
de:09375:398:0:2,,Regenstauf Post,49.1214141,12.1272653,,
de:09375:399:0:1,,Regenstauf Valentinsbad,49.1315545,12.1405873,,
de:09375:399:0:2,,Regenstauf Valentinsbad,49.131625,12.1409825,,
de:09375:400:0:1,,Regenstauf Bayernstr.,49.1139471,12.1249925,,
de:09375:400:0:2,,Regenstauf Bayernstr.,49.1164284,12.1256663,,
de:09375:401:0:1,,Regenstauf Benzstr.,49.1129357,12.1257022,,
de:09375:401:0:2,,Regenstauf Benzstr.,49.1128945,12.1256483,,
de:09375:402:0:1,,Regenstauf Gutenbergstr.,49.1108835,12.1211657,,
de:09375:402:0:2,,Regenstauf Gutenbergstr.,49.1108482,12.1212286,,
de:09375:403:0:1,,Regenstauf Lohstraße,49.1278689,12.1312897,,
de:09375:403:0:2,,Regenstauf Lohstraße,49.1276044,12.1307507,,
de:09375:404:0:1,,Abzw. Ritzhof,49.1155582,11.8341809,,
de:09375:404:0:2,,Abzw. Ritzhof,49.1160638,11.8348097,,
de:09375:405,,Abzw. Stadla,49.0246086,11.7723678,,
de:09375:405:0:1,,Abzw. Stadla,49.0245733,11.7724217,,
de:09375:406:0:1,,Regenstauf Straßäcker,49.1327007,12.1249566,,
de:09375:407,,Reinhardshofen,49.0775837,11.9819718,,
de:09375:408:0:1,,Riegling Kleinprüfening,49.0016124,12.0265911,,
de:09375:408:0:2,,Riegling Kleinprüfening,49.0017244,12.0267977,,
de:09375:409:0:1,,Riekofen Brücke,48.9156437,12.3488168,,
de:09375:409:0:2,,Riekofen Brücke,48.9155374,12.3487898,,
de:09375:41:0:1,,Abzw. Riegling/Kleinprüfening,49.0034157,12.0305167,,
de:09375:41:0:2,,Abzw. Riegling/Kleinprüfening,49.0027616,12.0303011,,
de:09375:410:0:1,,Riekofen Gh. Wiesbeck,48.9152245,12.3413787,,
de:09375:410:0:2,,Riekofen Gh. Wiesbeck,48.9149825,12.340669,,
de:09375:411:0:1,,Rogging Abzw. Zaitzkofen,48.8489492,12.2169351,,
de:09375:411:0:2,,Rogging Abzw. Zaitzkofen,48.8493512,12.2167914,,
de:09375:412:0:1,,Rogging Kreuzung,48.8512014,12.2179053,,
de:09375:412:0:2,,Rogging Kreuzung,48.8515442,12.2183904,,
de:09375:413:0:1,,Rohrbach,49.1847973,11.9354211,,
de:09375:413:0:2,,Rohrbach,49.1849029,11.9352773,,
de:09375:414:0:1,,Roith B 8,48.9813354,12.270861,,
de:09375:414:0:2,,Roith B 8,48.9811467,12.270843,,
de:09375:415:0:1,,Roith bei Mintraching,48.9800855,12.2707891,,
de:09375:415:0:2,,Roith bei Mintraching,48.9800914,12.2705555,,
de:09375:416:0:1,,Roidhof,49.0761244,12.2838506,,
de:09375:416:0:2,,Roidhof,49.0754359,12.2825031,,
de:09375:417:0:1,,Rosenhof,48.9840532,12.2363387,,
de:09375:417:0:2,,Rosenhof,48.9840768,12.2364465,,
de:09375:418:0:1,,Sillen,49.10889,11.9666465,,
de:09375:418:0:2,,Sillen,49.1088547,11.9665117,,
de:09375:419:0:1,,Samberg,49.1281041,12.2885039,,
de:09375:419:0:2,,Samberg,49.1282157,12.2885308,,
de:09375:42:0:1,,Abzw. Vorderappendorf,49.1315663,12.2455464,,
de:09375:42:0:2,,Abzw. Vorderappendorf,49.1316074,12.2455644,,
de:09375:420:0:1,,Sarching Baggersee,49.0055136,12.2481516,,
de:09375:420:0:2,,Sarching Baggersee,49.0055372,12.2492026,,
de:09375:421:0:1,,Sarching Obere Dorfstr.,49.0125138,12.2267267,,
de:09375:421:0:2,,Sarching Obere Dorfstr.,49.0124077,12.2269333,,
de:09375:422:0:1,,Sarching Rosenhofer Str.,49.0152594,12.2327993,,
de:09375:422:0:2,,Sarching Rosenhofer Str.,49.0151475,12.232988,,
de:09375:423:0:1,,Saxberg,48.9681686,11.9632868,,
de:09375:423:0:2,,Saxberg,48.9680801,11.9633676,,
de:09375:424:0:1,,Schaggenhofen,49.0661492,11.9202755,,
de:09375:424:0:2,,Schaggenhofen,49.0660962,11.9201677,,
de:09375:425:0:1,,Scharmassing,48.9682629,12.1211118,,
de:09375:425:0:2,,Scharmassing,48.9679091,12.1209232,,
de:09375:426:0:1,,Scheuer,48.9421549,12.2179502,,
de:09375:427:0:1,,Schierling Mannsdorfer Str.,48.8271435,12.1415395,,
de:09375:427:0:2,,Schierling Mannsdorfer Str.,48.8272381,12.1417281,,
de:09375:428:0:1,,Schierling Abzw. Bahnhof,48.8328146,12.1395542,,
de:09375:428:0:2,,Schierling Abzw. Bahnhof,48.8327791,12.1397069,,
de:09375:429:0:1,,Schierling BayWa,48.831833,12.1446117,0,de:09375:429_Parent
de:09375:429:0:2,,Schierling BayWa,48.8319098,12.144468,0,de:09375:429_Parent
de:09375:429:0:3,,Schierling BayWa Bstg 3,48.8311884,12.1435248,0,de:09375:429_Parent
de:09375:429:0:4,,Schierling BayWa Bstg 4,48.8311175,12.1436146,0,de:09375:429_Parent
de:09375:429_Parent,,Schierling BayWa,48.8318566,12.1445129,1,
de:09375:43:0:1,,Adlmannstein,49.0956334,12.2667287,,
de:09375:43:0:2,,Adlmannstein,49.095404,12.2667018,,
de:09375:430:0:1,,Schierling Buchhausener Str.,48.828409,12.146588,,
de:09375:430:0:2,,Schierling Buchhausener Str.,48.8283499,12.1463814,,
de:09375:432:0:1,,Schierling Leierndorfer Str.,48.8386683,12.1294212,,
de:09375:432:0:2,,Schierling Leierndorfer Str.,48.8387689,12.1294661,,
de:09375:433:0:1,,Schierling Rathaus,48.8376455,12.1378205,,
de:09375:433:0:2,,Schierling Rathaus,48.837403,12.1379193,,
de:09375:434:0:1,,Schierling Stifterstraße,48.8300708,12.1398686,,
de:09375:434:0:2,,Schierling Stifterstraße,48.8300649,12.1400483,,
de:09375:435:0:1,,Schneckenbach,48.9683514,11.9485365,,
de:09375:435:0:2,,Schneckenbach,48.9683986,11.9486443,,
de:09375:436:0:1,,Schwaighausen,49.0955511,12.0323223,,
de:09375:436:0:2,,Schwaighausen,49.0955922,12.0325559,,
de:09375:437:0:1,,Schwarzhöfe Bstg 1,49.1175808,11.9669429,,
de:09375:437:0:2,,Schwarzhöfe Bstg 2,49.1175984,11.9671226,,
de:09375:438:0:1,,Schönach Pfarrhaus,48.9128513,12.4226313,,
de:09375:438:0:2,,Schönach Pfarrhaus,48.9129929,12.4225146,,
de:09375:439:0:1,,Schönach Schloss,48.910407,12.4241675,,
de:09375:439:0:2,,Schönach Schloss,48.9104011,12.423898,,
de:09375:44:0:1,,Allersdorf,48.8008315,12.1278402,,
de:09375:44:0:2,,Allersdorf,48.8007723,12.1279929,,
de:09375:441:0:1,,Seedorf,48.9409926,12.0846851,,
de:09375:441:0:2,,Seedorf,48.9409926,12.0849007,,
de:09375:442:0:1,,Seibersdorf,49.1264816,12.2235467,,
de:09375:442:0:2,,Seibersdorf,49.1264052,12.2236006,,
de:09375:443:0:1,,Sengkofen Kirche,48.9245866,12.2873361,,
de:09375:443:0:2,,Sengkofen Kirche,48.9247401,12.2880368,,
de:09375:445:0:1,,Sinzing Abzw. Waldstraße,48.9903314,12.0316845,,
de:09375:445:0:2,,Sinzing Abzw. Waldstraße,48.9902076,12.0318911,,
de:09375:446:2:3,,Sinzing Bahnhof,48.9913511,12.0377751,,
de:09375:448:0:1,,Sinzing Laaberbrücke,48.9905259,12.026654,,
de:09375:448:0:2,,Sinzing Laaberbrücke,48.9906143,12.0269145,,
de:09375:449:0:1,,Sinzing Schule,48.9882918,12.0328433,,
de:09375:45:0:1,,Alling Abzw. Kurhaus,48.9800737,11.9771837,,
de:09375:45:0:2,,Alling Abzw. Kurhaus,48.980115,11.9771388,,
de:09375:450:0:1,,Sinzing Vogelsang,48.9967443,12.0315677,,
de:09375:450:0:2,,Sinzing Vogelsang,48.9967207,12.0317384,,
de:09375:453:0:1,,Stadel,49.1469639,12.1554454,,
de:09375:453:0:2,,Stadel,49.1465938,12.15567,,
de:09375:454:0:1,,Stadlhof,49.1166459,12.2672408,,
de:09375:454:0:2,,Stadlhof,49.1165636,12.2671419,,
de:09375:455:0:1,,Abzw. Stanglhof,49.1451423,12.281497,,
de:09375:455:0:2,,Abzw. Stanglhof,49.1451306,12.281524,,
de:09375:456:0:1,,Steinerbrückl,49.0276422,11.915191,,
de:09375:456:0:2,,Steinerbrückl,49.0277128,11.9149844,,
de:09375:459:0:1,,Steinsberg Ortsmitte,49.119521,12.0509983,,
de:09375:459:0:2,,Steinsberg Ortsmitte,49.119521,12.051133,,
de:09375:46:0:1,,Alling Laaberbrücke,48.9841181,11.9864454,,
de:09375:46:0:2,,Alling Laaberbrücke,48.9842478,11.9863735,,
de:09375:460:0:1,,Steinsberg Gh. Rinner,49.1229779,12.0482225,,
de:09375:460:0:2,,Steinsberg Gh. Rinner,49.1232013,12.0482225,,
de:09375:461:0:1,,Steinsberg Sportplatz,49.1191682,12.056505,,
de:09375:461:0:2,,Steinsberg Sportplatz,49.1192505,12.056505,,
de:09375:462:0:1,,Stetten Wolfsegger Str.,49.101627,11.9663411,,
de:09375:462:0:2,,Stetten Wolfsegger Str.,49.1015917,11.9664758,,
de:09375:462:0:3,,Stetten Wolfsegger Str.,49.1007095,11.965856,,
de:09375:463:0:1,,Stettwies,49.0741825,12.0837778,,
de:09375:463:0:2,,Stettwies,49.0740471,12.0839395,,
de:09375:464:0:1,,Stockhof Bstg 1,49.1051557,12.2614466,,
de:09375:464:0:2,,Stockhof Bstg 2,49.1053145,12.2621114,,
de:09375:464:0:3,,Stockhof Bstg 3,49.1058673,12.2617071,,
de:09375:466:0:1,,Sulzbach Tulpenweg,49.0311231,12.2416208,,
de:09375:466:0:2,,Sulzbach Tulpenweg,49.031023,12.2416927,,
de:09375:467:0:1,,Sünching Abzw. Bahnhof,48.8833354,12.3570903,,
de:09375:467:0:2,,Sünching Abzw. Bahnhof,48.8833886,12.3569286,,
de:09375:468:0:1,,Sünching Abzw. Geiselhöring,48.8784912,12.35347,,
de:09375:468:0:2,,Sünching Abzw. Geiselhöring,48.8787689,12.3535778,,
de:09375:469:0:1,,Sünching Pflegeheim,48.8735284,12.3478286,,
de:09375:469:0:2,,Sünching Pflegeheim,48.8735343,12.34764,,
de:09375:471:0:1,,Taimering Gh. Dirlmeier,48.9170782,12.3122643,,
de:09375:471:0:2,,Taimering Gh. Dirlmeier,48.9170487,12.3122464,,
de:09375:473:0:1,,Thalmassing Kindergarten,48.9115524,12.161509,,
de:09375:473:0:2,,Thalmassing Kindergarten,48.9114993,12.161006,,
de:09375:474:0:1,,Thalmassing Kirche,48.9126623,12.1581044,,
de:09375:474:0:2,,Thalmassing Kirche,48.9128335,12.1585626,,
de:09375:475:0:1,,Thalmassing Raiffeisenbank,48.9117709,12.1550951,,
de:09375:475:0:2,,Thalmassing Raiffeisenbank,48.911948,12.155122,,
de:09375:477,,Aichkirchen,49.0085071,11.7571055,,
de:09375:477:0:2,,Aichkirchen,49.0085071,11.7572402,,
de:09375:478:0:1,,Thanhausen Gasthaus,49.0823674,12.1715342,,
de:09375:478:0:2,,Thanhausen Gasthaus,49.0820438,12.1720822,,
de:09375:479:0:1,,Thiergarten,49.0700218,12.2743285,,
de:09375:479:0:2,,Thiergarten,49.0699924,12.2745081,,
de:09375:48:0:1,,Altach,49.0009818,12.3126506,,
de:09375:48:0:2,,Altach,49.0008816,12.3125158,,
de:09375:480:0:1,,Thumhausen Kirche,49.006262,11.9327261,0,de:09375:480_Parent
de:09375:480:0:2,,Thumhausen Kirche,49.0062502,11.9325015,0,de:09375:480_Parent
de:09375:480:0:3,,Thumhausen Kirche,49.0057788,11.9326273,0,de:09375:480_Parent
de:09375:480:0:4,,Thumhausen Kirche,49.005714,11.9325734,0,de:09375:480_Parent
de:09375:480_Parent,,Thumhausen Kirche,49.005985,11.9325554,1,
de:09375:481:0:1,,Tiefbrunn Kirche,48.9326722,12.2587337,,
de:09375:481:0:2,,Tiefbrunn Kirche,48.9328375,12.2584373,,
de:09375:482:0:1,,Traidendorf,49.1709971,11.945024,,
de:09375:482:0:2,,Traidendorf,49.1709384,11.9451588,,
de:09375:483:0:1,,Triftlfing,48.8860527,12.262821,,
de:09375:483:0:2,,Triftlfing,48.8854384,12.2634409,,
de:09375:484:0:1,,Trischlberg,49.1387309,12.0232853,,
de:09375:484:0:2,,Trischlberg,49.1388719,12.0232044,,
de:09375:485:2:1,,Undorf Bahnhof,49.0271238,11.9381519,,
de:09375:485:2:2,,Undorf Bahnhof,49.0267586,11.9392209,,
de:09375:486:0:1,,Undorf Dachgred,49.0263816,11.9472698,,
de:09375:486:0:2,,Undorf Dachgred,49.0262167,11.946659,,
de:09375:487:0:1,,Undorf Tankstelle,49.0275361,11.9326093,,
de:09375:487:0:2,,Undorf Tankstelle,49.0276186,11.9335256,,
de:09375:488:0:1,,Unteralling,48.9865646,11.9991116,,
de:09375:488:0:2,,Unteralling,48.9868593,11.9999381,,
de:09375:489:0:1,,Unterharm,49.1073552,12.2069279,,
de:09375:489:0:2,,Unterharm,49.1072787,12.2070626,,
de:09375:49:0:1,,Alteglofsheim Am Schlosshof,48.920012,12.2050863,,
de:09375:49:0:2,,Alteglofsheim Am Schlosshof,48.9199648,12.2051133,,
de:09375:490:0:1,,Unterheising (B 8),48.9997855,12.2259183,,
de:09375:490:0:2,,Unterheising (B 8),48.9996146,12.2258464,,
de:09375:491:0:1,,Unterheising Industriegebiet,48.9949938,12.2369226,,
de:09375:491:0:2,,Unterheising Industriegebiet,48.9952119,12.2362129,,
de:09375:494:0:1,,Unterlichtenwald Ortsmitte,49.0499198,12.2602069,,
de:09375:494:0:2,,Unterlichtenwald Ortsmitte,49.0499139,12.2603417,,
de:09375:495:0:1,,Unterpfraundorf,49.1395772,11.8576898,,
de:09375:495:0:2,,Unterpfraundorf,49.1394361,11.8579503,,
de:09375:496:0:1,,Untersanding Ortsmitte,48.8920243,12.1720014,,
de:09375:496:0:2,,Untersanding Ortsmitte,48.8919239,12.1717409,,
de:09375:499:0:1,,Viehhausen Kohlstadt Bstg 1,48.9835108,11.9438562,,
de:09375:499:0:2,,Viehhausen Kohlstadt Bstg 2,48.9826737,11.9433711,,
de:09375:50:0:1,,Alteglofsheim Landshuter Str.,48.914156,12.208976,,
de:09375:50:0:2,,Alteglofsheim Landshuter Str.,48.9136365,12.2089401,,
de:09375:500:0:1,,Viehhausen Jurastr. Bstg 1,48.9824732,11.9531897,,
de:09375:500:0:2,,Viehhausen Jurastr. Bstg 2,48.9825852,11.9536569,,
de:09375:501:0:1,,Viehhausen Kirche Bstg 1,48.9809522,11.9608434,,
de:09375:501:0:2,,Viehhausen Kirche Bstg 2,48.9816007,11.9609512,,
de:09375:502:0:1,,Viehhausen Reichenthalstr. Bstg 1,48.9769311,11.9590467,,
de:09375:502:0:2,,Viehhausen Reichenthalstr. Bstg 2,48.9770785,11.9590467,,
de:09375:503:0:1,,Viehhausen Rosenbuschstr. Bstg 1,48.979378,11.9604122,,
de:09375:503:0:2,,Viehhausen Rosenbuschstr. Bstg 2,48.9792718,11.9605739,,
de:09375:505:0:1,,Viehhausen Adlstein Bstg 1,48.9772613,11.9421764,,
de:09375:505:0:2,,Viehhausen Adlstein Bstg 2,48.9773969,11.942392,,
de:09375:506:0:1,,Viergstetten Wendeplatz,48.9949231,11.8947992,,
de:09375:506:0:2,,Viergstetten Wendeplatz,48.9949231,11.8947633,,
de:09375:507:0:1,,Wahlsdorf,48.7930264,12.1094068,,
de:09375:508:0:1,,Waldetzenberg,49.0430839,11.921605,,
de:09375:508:0:2,,Waldetzenberg,49.043131,11.9214433,,
de:09375:509:0:1,,Walkenstetten,48.8341214,12.167375,,
de:09375:509:0:2,,Walkenstetten,48.834352,12.1678062,,
de:09375:510:0:1,,Wall Gem. Wolfsegg,49.096504,11.9697637,,
de:09375:510:0:2,,Wall Gem. Wolfsegg,49.0965452,11.969575,,
de:09375:511:0:1,,Weg,49.1114774,12.2310656,,
de:09375:511:0:2,,Weg,49.1115068,12.2310297,,
de:09375:512:0:1,,Weillohe,48.9151478,12.1107363,,
de:09375:512:0:2,,Weillohe,48.9148408,12.1111675,,
de:09375:513:0:1,,Weißenkirchen,49.0525574,11.9292856,,
de:09375:513:0:2,,Weißenkirchen,49.05221,11.9293934,,
de:09375:514:0:1,,Beratzhausen Marktplatz,49.0953805,11.8092976,,
de:09375:516:0:1,,Wenzenbach Gemeindezentrum,49.0753535,12.1955821,,
de:09375:516:0:2,,Wenzenbach Gemeindezentrum,49.0753064,12.1957888,,
de:09375:517:0:1,,Wenzenbach Hopfengarten,49.0815554,12.2211302,,
de:09375:517:0:2,,Wenzenbach Hopfengarten,49.0816496,12.2211662,,
de:09375:518:0:1,,Wenzenbach Kapellenweg,49.0756654,12.2067123,,
de:09375:518:0:2,,Wenzenbach Kapellenweg,49.0754418,12.2067123,,
de:09375:519:0:1,,Wenzenbach Kirche,49.0767363,12.1991215,,
de:09375:519:0:2,,Wenzenbach Kirche,49.0766304,12.1994808,,
de:09375:52:0:1,,Alteglofsheim Ringstraße,48.9234061,12.2066045,,
de:09375:52:0:2,,Alteglofsheim Ringstraße,48.9231818,12.2060026,,
de:09375:520:0:1,,Wenzenbach Weiße Marter,49.0770011,12.2093533,,
de:09375:520:0:2,,Wenzenbach Weiße Marter,49.0769482,12.208473,,
de:09375:521:0:1,,Wenzenbach Regensburger Str.,49.0732056,12.1904348,,
de:09375:521:0:2,,Wenzenbach Regensburger Str.,49.0731291,12.190354,,
de:09375:522:0:1,,Wenzenbach Roither Weg,49.0730702,12.1861049,,
de:09375:522:0:2,,Wenzenbach Roither Weg,49.0730467,12.1860241,,
de:09375:524:0:1,,Wiedenhof,49.1545376,12.2287569,,
de:09375:527:0:1,,Wischenhofen,49.1160109,11.9133584,,
de:09375:527:0:2,,Wischenhofen,49.1159403,11.9133405,,
de:09375:528:0:1,,Wolfersdorf,49.1462059,12.2385665,,
de:09375:528:0:2,,Wolfersdorf,49.1461178,12.2387013,,
de:09375:529:0:1,,Wolferszwing,49.1142822,12.2768437,,
de:09375:529:0:2,,Wolferszwing,49.1141294,12.2769246,,
de:09375:53:0:1,,Alteglofsheim Schlossblick,48.9182175,12.2080777,,
de:09375:53:0:2,,Alteglofsheim Schlossblick,48.9182175,12.2080058,,
de:09375:531:0:1,,Wolfsegg Feuerwehrhaus Bstg 1,49.10682,11.9803548,,
de:09375:531:0:2,,Wolfsegg Feuerwehrhaus Bstg 2,49.1068377,11.9810555,,
de:09375:532:0:1,,Wolfsegg Ortsmitte,49.1077903,11.9766178,,
de:09375:532:0:2,,Wolfsegg Ortsmitte,49.1079668,11.9766178,,
de:09375:533:0:1,,Wolfsegg Raiffeisenbank Bstg 1,49.1075198,11.9763573,,
de:09375:533:0:2,,Wolfsegg Raiffeisenbank Bstg 2,49.1075434,11.9761956,,
de:09375:534:0:1,,Wolfskofen (B 8),48.9853797,12.2551674,,
de:09375:534:0:2,,Wolfskofen (B 8),48.9852264,12.2550237,,
de:09375:535,,Bügerlleithen,49.0180225,11.7666905,,
de:09375:535:0:1,,Bügerlleithen,49.0179695,11.7667444,,
de:09375:536:0:1,,Wolkering Kirchbergstraße,48.9321706,12.1349099,,
de:09375:536:0:2,,Wolkering Kirchbergstraße,48.9322768,12.1349459,,
de:09375:537:0:1,,Wolkering Talstraße,48.9318578,12.1317299,,
de:09375:537:0:2,,Wolkering Talstraße,48.931964,12.1318107,,
de:09375:538:0:1,,Wulkersdorf,49.1508303,12.2907587,,
de:09375:539:0:1,,Eichhofen,49.0147822,11.9264738,,
de:09375:539:0:2,,Eichhofen,49.0148175,11.9268062,,
de:09375:54:0:1,,Altenthann Lohweg,49.0926511,12.3036854,,
de:09375:54:0:2,,Altenthann Lohweg,49.0926511,12.303892,,
de:09375:541:0:1,,Zaitzkofen Kapelle,48.8363447,12.2112667,,
de:09375:541:0:2,,Zaitzkofen Kapelle,48.8363269,12.211123,,
de:09375:542:0:1,,Zaitzkofen Wendeplatz,48.8371192,12.2129106,,
de:09375:543:0:1,,Zeitlarn Ortsmitte,49.0764127,12.1067028,,
de:09375:543:0:2,,Zeitlarn Ortsmitte,49.0760832,12.1063884,,
de:09375:544:0:1,,Zeitlarn Siedlung,49.0785605,12.1113561,,
de:09375:544:0:2,,Zeitlarn Siedlung,49.0784193,12.1112753,,
de:09375:545:0:1,,Ziegelhütte,49.0787547,12.0826998,,
de:09375:545:0:2,,Ziegelhütte,49.0788606,12.0828256,,
de:09375:547:0:1,,Zinthof,49.0760126,12.3913071,,
de:09375:547:0:2,,Zinthof,49.0759243,12.3912532,,
de:09375:548:0:1,,Zinzendorf Ortsmitte,48.9829508,12.4743384,,
de:09375:548:0:2,,Zinzendorf Ortsmitte,48.9828505,12.4743204,,
de:09375:549:0:1,,Zinzendorf West,48.9839412,12.4673944,,
de:09375:549:0:2,,Zinzendorf West,48.9839117,12.4673046,,
de:09375:55:0:1,,Altenthann Johannisbreite,49.090851,12.3042064,,
de:09375:55:0:2,,Altenthann Johannisbreite,49.0908628,12.304431,,
de:09375:550:0:1,,Ödgarten,49.0823674,12.3060839,,
de:09375:550:0:2,,Ödgarten,49.0822615,12.3061288,,
de:09375:551:0:1,,Abzw. Haid,49.0215219,11.7295541,,
de:09375:551:0:2,,Abzw. Haid,49.0215925,11.7291858,,
de:09375:553:0:1,,Hohes Kreuz Abzw. Altenth.,49.0827734,12.2986099,,
de:09375:553:0:2,,Hohes Kreuz Abzw. Altenth.,49.0826733,12.298547,,
de:09375:554:0:1,,Neuhof Gem. Zeitlarn,49.0962275,12.1229354,,
de:09375:554:0:2,,Neuhof Gem. Zeitlarn,49.0955981,12.1228635,,
de:09375:555:0:1,,Hinterberg (Regenstauf),49.1998908,12.1658749,,
de:09375:555:0:2,,Hinterberg (Regenstauf),49.2001901,12.1657311,,
de:09375:557:2:1,,Etterzhausen Bahnhof,49.0310937,11.9770759,,
de:09375:559:2,,Beratzhausen Bahnhof,49.0923393,11.8081208,,
de:09375:559:2:1,,Beratzhausen Bahnhof,49.092357,11.808561,,
de:09375:56:0:1,,Regenstauf Am Gr. Weg,49.1320541,12.1241571,,
de:09375:56:0:2,,Regenstauf Am Gr. Weg,49.1325949,12.1236001,,
de:09375:569,,Grafenstadl,49.007582,11.7738231,,
de:09375:569:0:1,,Grafenstadl,49.0075525,11.773868,,
de:09375:571,,Höfen,49.0283195,11.7815486,,
de:09375:571:0:1,,Höfen,49.0282665,11.7815756,,
de:09375:572,,Neukirchen,49.0765775,11.7495866,,
de:09375:572:0:1,,Neukirchen,49.0765775,11.7495956,,
de:09375:573:0:1,,Nittendorf Bäckerei Kroiß,49.0229533,11.9606907,,
de:09375:573:0:2,,Nittendorf Bäckerei Kroiß,49.0232007,11.9602954,,
de:09375:574:0:2,,Nittendorf Kirche,49.0255982,11.9603673,,
de:09375:575:0:1,,Nittendorf Nickelberg,49.0250857,11.9665117,,
de:09375:575:0:2,,Nittendorf Nickelberg,49.0252919,11.9662423,,
de:09375:578,,Rufenried,49.0862682,11.78242,,
de:09375:578:0:1,,Rufenried,49.0861976,11.7824739,,
de:09375:58:0:1,,Auburg,49.0073227,12.3145371,,
de:09375:58:0:2,,Auburg,49.0073227,12.3144203,,
de:09375:580:0:1,,Schönhofen Brücke,49.0075407,11.9613195,,
de:09375:580:0:2,,Schönhofen Brücke,49.0076762,11.9613734,,
de:09375:581:0:1,,Schönhofen Gh Feuerer,49.0092319,11.9623705,,
de:09375:581:0:2,,Schönhofen Gh Feuerer,49.0091081,11.962092,,
de:09375:582:0:1,,Schönhofen Landessiedlung,49.0144287,11.9599181,,
de:09375:582:0:2,,Schönhofen Landessiedlung,49.0144994,11.9595857,,
de:09375:586:0:1,,Weiherhäusl,49.1103366,12.2725947,,
de:09375:586:0:2,,Weiherhäusl,49.1101191,12.2727025,,
de:09375:587:0:1,,Unterdeggenbach,48.8388989,12.1871739,,
de:09375:587:0:2,,Unterdeggenbach,48.8388398,12.1870841,,
de:09375:589:0:1,,"Grubberg, Abzw. Göppenbach",49.1201795,12.2915761,,
de:09375:589:0:2,,"Grubberg, Abzw. Göppenbach",49.1204029,12.292151,,
de:09375:59:0:1,,Allkofen,48.9682688,12.2636565,,
de:09375:59:0:2,,Allkofen,48.9682924,12.2636026,,
de:09375:595:0:1,,Buchhausen Gh. Rohrmayer,48.8140543,12.1714085,,
de:09375:595:0:2,,Buchhausen Gh. Rohrmayer,48.814143,12.1710941,,
de:09375:599:0:1,,Kareth Am Tunnel,49.0377016,12.0875148,,
de:09375:599:0:2,,Kareth Am Tunnel,49.0380962,12.0873082,,
de:09375:6:0:1,,Abzw. Bergmatting,48.9683868,11.970123,,
de:09375:6:0:2,,Abzw. Bergmatting,48.9681981,11.9700062,,
de:09375:60:0:1,,Aufhausen Etzweg,48.8715431,12.2764665,,
de:09375:60:0:2,,Aufhausen Etzweg,48.8717617,12.2759005,,
de:09375:600:0:1,,Lappersdorf Watzlikstraße,49.0513152,12.0731777,,
de:09375:600:0:2,,Lappersdorf Watzlikstraße,49.0512504,12.0732406,,
de:09375:601,,Lautersee,48.9976814,11.7732572,,
de:09375:601:0:1,,Lautersee,48.9978877,11.7732482,,
de:09375:61:0:1,,Aufhausen Kindergarten,48.8724944,12.2856383,,
de:09375:611:0:1,,Abzw. Schirndorf,49.1779153,11.9922754,,
de:09375:611:0:2,,Abzw. Schirndorf,49.1777567,11.9913861,,
de:09375:613:0:1,,Abzw. Seppenhausen,48.9713117,12.3545929,,
de:09375:613:0:2,,Abzw. Seppenhausen,48.9713058,12.3547367,,
de:09375:617:0:1,,Barbing Am Sarchinger Feld Nord,49.0038754,12.2152463,0,de:09375:617_Parent
de:09375:617:0:2,,Barbing Am Sarchinger Feld Nord,49.0037575,12.2156685,0,de:09375:617_Parent
de:09375:617:0:3,,Barbing Am Sarchinger Feld Nord,49.0034334,12.215399,0,de:09375:617_Parent
de:09375:617:0:4,,Barbing Am Sarchinger Feld Nord,49.0034157,12.2152822,0,de:09375:617_Parent
de:09375:617_Parent,,Barbing Am Sarchinger Feld Nord,49.003787,12.215381,1,
de:09375:62:0:1,,Aufhausen Sparkasse,48.8729316,12.2811287,,
de:09375:62:0:2,,Aufhausen Sparkasse,48.8725062,12.280455,,
de:09375:62:0:3,,Aufhausen Sparkasse,48.8729907,12.2807335,,
de:09375:63:0:1,,Auhof,48.9700085,12.2567574,,
de:09375:63:0:2,,Auhof,48.9700969,12.2568652,,
de:09375:64:0:1,,Aukofen,48.9407565,12.2414142,,
de:09375:64:0:2,,Aukofen,48.940727,12.2412794,,
de:09375:642:0:1,,Deuerling Am Bahnhof,49.0406578,11.9186136,,
de:09375:642:0:2,,Deuerling Am Bahnhof,49.0407638,11.9184968,,
de:09375:644:0:1,,Eich,49.1773339,11.9745876,,
de:09375:644:0:2,,Eich,49.1772223,11.9745157,,
de:09375:646:0:1,,Fischbach,49.1728471,11.9841277,,
de:09375:646:0:2,,Fischbach,49.1730057,11.9838403,,
de:09375:649:0:1,,Geisling Am Bach,48.97084,12.3184537,,
de:09375:649:0:2,,Geisling Am Bach,48.9707338,12.3185885,,
de:09375:650:0:1,,Geisling Kraftwerkweg,48.9689706,12.3354678,,
de:09375:650:0:2,,Geisling Kraftwerkweg,48.9688644,12.335342,,
de:09375:651:0:1,,Moosmühle,48.9652788,12.3425375,,
de:09375:652:0:N,,Gessendorf,49.1458181,11.9502612,,
de:09375:652:0:S,,Gessendorf,49.1461589,11.9503421,,
de:09375:653:0:1,,Grünthal Schützenheimweg,49.0513623,12.1518342,,
de:09375:653:0:2,,Grünthal Schützenheimweg,49.051321,12.1520139,,
de:09375:656:0:1,,Hainsacker Am Kuffholz,49.0734351,12.0464259,,
de:09375:656:0:2,,Hainsacker Am Kuffholz,49.0734881,12.0466594,,
de:09375:657:0:1,,Hainsacker Hochgrain,49.0662375,12.0565948,,
de:09375:657:0:2,,Hainsacker Hochgrain,49.0663317,12.0566397,,
de:09375:658:0:1,,Hainsacker Schule,49.0731232,12.0512858,,
de:09375:658:0:2,,Hainsacker Schule Bstg 2,49.0731997,12.0512408,,
de:09375:662:0:1,,Hänghof,48.9319581,12.1058943,,
de:09375:670:0:1,,Lappersdorf Kirchberg,49.0497491,12.0903715,,
de:09375:671:0:1,,Lappersdorf Lessingstraße,49.0516802,12.0819722,,
de:09375:671:0:2,,Lappersdorf Lessingstraße,49.0513269,12.082107,,
de:09375:690:0:1,,Neuhäusl,49.0371952,11.8840644,,
de:09375:695:0:1,,Neutraubling Dresdener Straße,48.9903019,12.2021668,,
de:09375:695:0:2,,Neutraubling Dresdener Straße,48.990243,12.2021398,,
de:09375:696:0:1,,Neutraubling Marktplatz,48.9923532,12.1992922,,
de:09375:696:0:2,,Neutraubling Marktplatz,48.9925359,12.1984837,,
de:09375:697:0:1,,Niedertraubling Altes Schloss,48.9600061,12.1836525,,
de:09375:697:0:2,,Niedertraubling Altes Schloss,48.9595284,12.1848113,,
de:09375:7:0:1,,Kaulhausen Abzw. Dettenh.,49.0862093,12.026636,,
de:09375:7:0:2,,Kaulhausen Abzw. Dettenh.,49.0863623,12.0265551,,
de:09375:702:0:1,,Obertraubling Gewerbegebiet,48.9764535,12.1567749,,
de:09375:703:0:1,,Obertraubling Grundschule,48.9658391,12.1618145,,
de:09375:703:0:2,,Obertraubling Grundschule,48.9657447,12.1618504,,
de:09375:705:0:1,,Pfatter Kindergarten,48.9638221,12.3874443,,
de:09375:705:0:2,,Pfatter Kindergarten,48.9637513,12.3873275,,
de:09375:706:0:1,,Pfatter Schule,48.9601654,12.3745535,,
de:09375:706:0:2,,Pfatter Schule,48.9600474,12.3747062,,
de:09375:714:0:1,,Regenstauf Johann-Strauß-Str. Bstg 1,49.1352868,12.130598,,
de:09375:714:0:2,,Regenstauf Johann-Strauß-Str.,49.1351869,12.130634,,
de:09375:715:0:1,,Regenstauf Masurenweg,49.1257409,12.1261693,,
de:09375:721:0:1,,Schierling Spitzwegstraße,48.8325367,12.151394,,
de:09375:721:0:2,,Schierling Spitzwegstraße,48.8326076,12.1514749,,
de:09375:727:0:1,,Schönach Hauptstraße,48.911027,12.4242303,,
de:09375:735:0:1,,Undorf Abzw.Eichhofen,49.02561,11.9268332,,
de:09375:735:0:2,,Undorf Abzw.Eichhofen,49.025663,11.9265008,,
de:09375:739:0:N,,Weichseldorf,49.1349518,11.9467578,,
de:09375:739:0:S,,Weichseldorf,49.1345227,11.9465153,,
de:09375:742:0:1,,Wenzenbach Unterlindhof,49.0720522,12.1860331,,
de:09375:742:0:2,,Wenzenbach Unterlindhof,49.0720757,12.1862576,,
de:09375:748:0:2,,Sinzing Am Reitfeld,48.9940213,12.0325918,,
de:09375:749:0:1,,Köfering (B 15),48.9374463,12.2022027,,
de:09375:749:0:2,,Köfering (B 15),48.9366496,12.2021848,,
de:09375:75:0:1,,Abzw. Baiern,49.079602,12.0410629,,
de:09375:75:0:2,,Abzw. Baiern,49.0795196,12.0413684,,
de:09375:750:0:1,,Himmelmühle,49.0660315,12.3608362,,
de:09375:750:0:2,,Himmelmühle,49.0659079,12.3609171,,
de:09375:751:0:1,,Grünthal Abzw. Pfakofen,48.8752064,12.2078082,,
de:09375:751:0:2,,Grünthal Abzw. Pfakofen,48.8751709,12.2075926,,
de:09375:753:0:1,,Etterzhausen Abzw. Bahnhof,49.0317062,11.9793307,,
de:09375:753:0:2,,Etterzhausen Abzw. Bahnhof,49.0317828,11.9793666,,
de:09375:754:0:1,,Neutraubling Heising,48.9901133,12.208985,,
de:09375:754:0:2,,Neutraubling Heising,48.9901015,12.2088503,,
de:09375:755:0:1,,Weismühle,49.0767305,12.3848662,,
de:09375:755:0:2,,Weismühle,49.0766187,12.3848662,,
de:09375:762:0:1,,Hohenwarth bei Steinsberg,49.1293796,12.0428146,,
de:09375:762:0:2,,Hohenwarth bei Steinsberg,49.1292033,12.0432009,,
de:09375:77:0:1,,Regenstauf Beethovenstr.,49.1337939,12.127418,,
de:09375:77:0:2,,Regenstauf Beethovenstr.,49.1336176,12.1276066,,
de:09375:773:0:1,,Krachenhausen,49.1467877,11.9536389,,
de:09375:773:0:2,,Krachenhausen,49.14734,11.9532796,,
de:09375:774:0:1,,Bach Ost,49.0204026,12.3087609,,
de:09375:774:0:2,,Bach Ost,49.0202847,12.3088238,,
de:09375:78:0:1,,Benhof,49.0721287,12.0948271,,
de:09375:78:0:2,,Benhof,49.072011,12.0948181,,
de:09375:79:0:1,,Bergstetten,49.082032,11.90133,,
de:09375:79:0:2,,Bergstetten,49.0819791,11.9011593,,
de:09375:8:0:1,,Diesenbach Abzweigung,49.1354044,12.1191535,,
de:09375:8:0:2,,Diesenbach Abzweigung,49.1355043,12.1193331,,
de:09375:80:0:1,,Bernhardswald Bahnhof,49.0914746,12.2304368,,
de:09375:80:0:2,,Bernhardswald Bahnhof,49.091404,12.2303559,,
de:09375:807:0:1,,Wolfsegg Birkenstraße Bstg 1,49.1078492,11.9711021,,
de:09375:807:0:2,,Wolfsegg Birkenstraße Bstg 2,49.1082196,11.9707877,,
de:09375:81:0:1,,Bernhardswald Gemeindezentrum,49.0926158,12.253775,,
de:09375:81:0:2,,Bernhardswald Gemeindezentrum,49.0924805,12.2536223,,
de:09375:811:0:1,,Pentling Kornweg,48.9874606,12.0627752,,
de:09375:813:0:1,,Neutraubling Realschule,48.9882152,12.2037838,0,de:09375:813_Parent
de:09375:813:0:10,,Neutraubling Realschule,48.9884745,12.2010529,0,de:09375:813_Parent
de:09375:813:0:11,,Neutraubling Realschule,48.9884981,12.2007834,0,de:09375:813_Parent
de:09375:813:0:12,,Neutraubling Realschule,48.9885158,12.2006127,0,de:09375:813_Parent
de:09375:813:0:13,,Neutraubling Realschule,48.9885276,12.200442,0,de:09375:813_Parent
de:09375:813:0:2,,Neutraubling Realschule,48.9882623,12.2035233,0,de:09375:813_Parent
de:09375:813:0:3,,Neutraubling Realschule,48.9882859,12.203128,0,de:09375:813_Parent
de:09375:813:0:4,,Neutraubling Realschule,48.9883154,12.2028136,0,de:09375:813_Parent
de:09375:813:0:5,,Neutraubling Realschule,48.9883449,12.2024992,0,de:09375:813_Parent
de:09375:813:0:6,,Neutraubling Realschule,48.9883802,12.2021578,0,de:09375:813_Parent
de:09375:813:0:7,,Neutraubling Realschule,48.9884097,12.2018704,0,de:09375:813_Parent
de:09375:813:0:8,,Neutraubling Realschule,48.9884333,12.2016098,0,de:09375:813_Parent
de:09375:813:0:9,,Neutraubling Realschule,48.9884628,12.2013403,0,de:09375:813_Parent
de:09375:813_Parent,,Neutraubling Realschule,48.9881916,12.202059,1,
de:09375:814:0:1,,Hohengebraching Kirche,48.9606608,12.0824932,,
de:09375:814:0:2,,Hohengebraching Kirche,48.9608672,12.0825022,,
de:09375:815:0:1,,Neudorf bei Pentling,48.957865,12.103927,,
de:09375:815:0:2,,Neudorf bei Pentling,48.9582307,12.1073945,,
de:09375:816:0:1,,Höhenhof,48.9517833,12.110341,,
de:09375:816:0:2,,Höhenhof,48.951978,12.1103949,,
de:09375:82:0:1,,Bernhardswald Gasthof Lingauer,49.0904157,12.2471814,,
de:09375:82:0:2,,Bernhardswald Gasthof Lingauer,49.0904863,12.2470376,,
de:09375:821:0:1,,Johannishof,48.9582248,12.3534611,,
de:09375:821:0:2,,Johannishof,48.9580715,12.3533353,,
de:09375:822:0:1,,Roith bei Wenzenbach,49.077466,12.1791699,,
de:09375:822:0:2,,Roith bei Wenzenbach,49.0774189,12.1791699,,
de:09375:825:0:1,,Waltenhofen,49.0190594,12.0090739,,
de:09375:826:0:1,,Mariaort Kirche,49.014629,12.027157,,
de:09375:826:0:2,,Mariaort Kirche,49.0147409,12.027148,,
de:09375:827:0:1,,Kleinprüfening,49.0078589,12.0273906,,
de:09375:827:0:2,,Kleinprüfening,49.007906,12.0275972,,
de:09375:828:0:1,,Kallmünz Holzheimer Straße Bstg 1,49.1587441,11.9683533,,
de:09375:828:0:2,,Kallmünz Holzheimer Straße Bstg 2,49.1587911,11.9676706,,
de:09375:829:0:1,,Abzweigung Einhausen,48.872459,12.1980256,,
de:09375:829:0:2,,Abzweigung Einhausen,48.8725889,12.1979986,,
de:09375:83:0:1,,Bernhardswald Siedlung,49.0895097,12.2383869,,
de:09375:83:0:2,,Bernhardswald Siedlung,49.0894803,12.2378569,,
de:09375:830:0:1,,Bergmatting Kirche,48.9693303,11.9815585,,
de:09375:830:0:2,,Bergmatting Kirche,48.9694129,11.9812172,,
de:09375:831:0:1,,Bergmatting Wendeschleife,48.9678914,11.9832923,,
de:09375:832:0:1,,Alling  Alter Bahnhof,48.9847371,11.9915837,,
de:09375:832:0:2,,Alling  Alter Bahnhof,48.9847783,11.9911885,,
de:09375:833:0:2,,Reichenstetten,48.9601359,11.9543575,,
de:09375:834:0:1,,Dürnstetten,48.9520252,11.9380352,,
de:09375:836:0:1,,Pettenreuth Ost,49.1329887,12.2574222,,
de:09375:836:0:2,,Pettenreuth Ost,49.1329769,12.2575749,,
de:09375:837:0:1,,Pettenreuth West,49.1317837,12.2557423,,
de:09375:837:0:2,,Pettenreuth West,49.1315839,12.255922,,
de:09375:838,,Kraxenhöfen,48.8492448,12.1805084,,
de:09375:838:0:1,,Kraxenhöfen,48.8492802,12.1805713,,
de:09375:839:0:1,,Irlbach Schule,49.0650603,12.1621379,,
de:09375:839:0:2,,Irlbach Schule,49.0651781,12.1621738,,
de:09375:84:0:1,,Bernhardswald Einmündung B16,49.0900098,12.242025,,
de:09375:843:0:1,,Graßlfing B 16,48.9566558,12.0464079,,
de:09375:843:0:2,,Graßlfing B 16,48.9566912,12.0462552,,
de:09375:845:0:1,,Ramspau Ortsmitte,49.1564118,12.1418,,
de:09375:845:0:2,,Ramspau Ortsmitte,49.1563824,12.1420965,,
de:09375:85,,Abzw. Arnest,49.0355639,11.7822044,,
de:09375:85:0:1,,Abzw. Arnest,49.0354991,11.7822314,,
de:09375:86:0:1,,Bibersbach,49.0796843,12.3547726,,
de:09375:86:0:2,,Bibersbach,49.079549,12.3546379,,
de:09375:860:0:1,,Alteglofsheim Buchenweg,48.9223436,12.2028585,,
de:09375:860:0:2,,Alteglofsheim Buchenweg,48.9224558,12.2027956,,
de:09375:861:0:1,,Alteglofsheim Schule,48.9259028,12.2021219,,
de:09375:861:0:2,,Alteglofsheim Schule,48.9257966,12.20152,,
de:09375:862:0:1,,Köfering Gemeindeplatz,48.932088,12.197792,,
de:09375:862:0:2,,Köfering Gemeindeplatz,48.9320526,12.1977022,,
de:09375:866:0:1,,Köfering Schloss,48.9379891,12.1955013,,
de:09375:866:0:2,,Köfering Schloss,48.9378829,12.1953216,,
de:09375:868:0:0,,Donaustauf Reifldinger Str.,49.0314235,12.2173483,,
de:09375:87:0:1,,Birnbach,48.7842375,12.1126497,,
de:09375:87:0:2,,Birnbach,48.7842552,12.1129641,,
de:09375:88:0:1,,Brennberg Einmündung,49.0748357,12.3942356,,
de:09375:88:0:2,,Brennberg Einmündung,49.0748298,12.394029,,
de:09375:89:0:1,,Brennberg Hintermeier,49.0705103,12.3966251,,
de:09375:89:0:2,,Brennberg Hintermeier,49.0704691,12.3964634,,
de:09375:9:0:1,,Abzw. Drackenstein,49.1548373,12.1869583,,
de:09375:9:0:2,,Abzw. Drackenstein,49.154802,12.1870032,,
de:09375:90:0:1,,Brennberg Kerscher,49.0729643,12.3947027,,
de:09375:90:0:2,,Brennberg Kerscher,49.072929,12.39455,,
de:09375:901:0:1,,Wiesent Ost,49.0042879,12.3843631,,
de:09375:901:0:2,,Wiesent Ost,49.0042231,12.3842912,,
de:09375:905:0:1,,Obertraubling Mühlenweg,48.9653968,12.1563168,,
de:09375:905:0:2,,Obertraubling Mühlenweg,48.9653319,12.1563258,,
de:09375:908:0:1,,Köfering Linde,48.9353691,12.1980615,,
de:09375:908:0:2,,Köfering Linde,48.9350741,12.1980705,,
de:09375:909:0:1,,Köfering Sportheim,48.9391988,12.2004869,,
de:09375:909:0:2,,Köfering Sportheim,48.9392696,12.2003881,,
de:09375:91:0:1,,Brennthal,49.1060437,12.124741,,
de:09375:91:0:2,,Brennthal,49.1060261,12.1248578,,
de:09375:910:0:1,,Tiefenthal Feuerwehrhaus,48.9929957,12.4305994,,
de:09375:910:0:2,,Tiefenthal Feuerwehrhaus,48.9928896,12.4305635,,
de:09375:911:0:1,,Tiefenthal West,48.9936912,12.4245986,,
de:09375:911:0:2,,Tiefenthal West,48.9935733,12.4246166,,
de:09375:916:0:1,,Regenstauf Zentrum/Bahnhof,49.1221078,12.1260346,,
de:09375:917:0:1,,Regenstauf Schneitweger Str.,49.1239009,12.1304273,,
de:09375:918:0:1,,Regenstauf Sonnenwinkel,49.1239244,12.1365089,,
de:09375:919:0:1,,Regenstauf Frühlingstraße,49.1213847,12.135916,,
de:09375:92:0:1,,Bruckbach,49.0777131,12.364681,,
de:09375:92:0:2,,Bruckbach,49.0775955,12.3646361,,
de:09375:920:0:1,,Sulzbach Dorfplatz,49.0288437,12.2400488,,
de:09375:921:0:1,,Oberhinkofen Hochweg,48.9541901,12.1222796,,
de:09375:921:0:2,,Oberhinkofen Hochweg,48.9542668,12.1220191,,
de:09375:923:0:1,,Bernhardsw. Finsinger Str.,49.0969098,12.2566766,,
de:09375:923:0:2,,Bernhardsw. Finsinger Str.,49.0971628,12.2570628,,
de:09375:924,,Abzweigung Mühlschlag,49.1265228,11.9660446,,
de:09375:927:0:1,,Edlhausen Wendeschleife,49.0600748,11.9090735,,
de:09375:928:0:1,,Barbing Feuerwehrhaus,49.0023903,12.1974237,,
de:09375:93:0:1,,Bruckdorf Forsthaus Bstg 1,48.989795,12.0165749,,
de:09375:93:0:2,,Bruckdorf Forsthaus Bstg 2,48.9898539,12.0163772,,
de:09375:931:0:1,,Probstberg Zeitlhof,49.0630415,12.1909019,,
de:09375:939:0:1,,Steinsberg Schule,49.1200795,12.058095,,
de:09375:939:0:2,,Steinsberg Schule,49.1200678,12.0579872,,
de:09375:94:0:1,,Bruckdorf Wirtshaus Bstg 1,48.9868122,12.0136194,,
de:09375:94:0:2,,Bruckdorf Wirtshaus Bstg 2,48.9864879,12.012775,,
de:09375:95:0:1,,Brunn,49.0957922,11.8993896,,
de:09375:95:0:2,,Brunn,49.0958511,11.8993267,,
de:09375:950:0:1,,Hauzendorf Am Kellerberg Bstg 1,49.1248239,12.2640428,,
de:09375:950:0:2,,Hauzendorf Am Kellerberg,49.1249649,12.2642314,,
de:09375:954:0:1,,Untersanding Wiesengrund,48.8957923,12.1780111,,
de:09375:954:0:2,,Untersanding Wiesengrund,48.8958632,12.1779213,,
de:09375:955:0:1,,Großberg Steinerne Bank,48.9728861,12.0612301,,
de:09375:955:0:2,,Großberg Steinerne Bank,48.9728979,12.0609696,,
de:09375:956:0:1,,Abzw. Dingstetten,49.1028562,12.2600093,,
de:09375:956:0:2,,Abzw. Dingstetten,49.1031444,12.2603597,,
de:09375:957:0:1,,Regenstauf Am Spangl,49.1218315,12.1248488,,
de:09375:96:0:1,,Buchenlohe,49.1374438,12.0508097,,
de:09375:96:0:2,,Buchenlohe,49.1377435,12.0504324,,
de:09375:961:0:1,,Regenstauf Hauzensteiner Str.,49.1188566,12.1393296,,
de:09375:962:0:1,,Regenstauf Pestalozzistraße,49.1156581,12.1388446,,
de:09375:963:0:1,,Regenstauf Eckert Schulen,49.1153289,12.1366527,,
de:09375:964:0:1,,Regenstauf Goethestraße,49.1176337,12.1313436,,
de:09375:965:0:1,,Regenstauf Gerh.-Hauptm.-Str.,49.1188272,12.1269868,,
de:09375:966:0:1,,Regenstauf Marktplatz,49.1242713,12.1277324,,
de:09375:967:0:1,,Regenstauf Kulturhaus/MGH,49.1268872,12.1294482,,
de:09375:97:0:1,,Großberg Studentenstadt,48.9751445,12.0632513,,
de:09375:97:0:2,,Großberg Studentenstadt,48.9751268,12.0630806,,
de:09375:970:0:1,,Diesenbach Schule,49.1291504,12.1171772,,
de:09375:971:0:1,,Diesenbach Am Wasserwerk,49.1268049,12.1169796,,
de:09375:972:0:1,,Diesenbach Birkenweg,49.122684,12.1157758,,
de:09375:973:0:1,,Diesenbach Regendorfer Straße,49.1212612,12.1176802,,
de:09375:974:0:1,,Diesenbach Abzw. Edlhausen,49.1156287,12.1149943,,
de:09375:975:0:1,,Regenstauf Abzw. Gutenbergstr.,49.1140647,12.1236091,,
de:09375:976:0:1,,Hof bei Wörth a.d.Do.,48.9824968,12.4836719,,
de:09375:976:0:2,,Hof bei Wörth a.d.Do.,48.9824673,12.4837707,,
de:09375:977:0:1,,Stetten Kieferstraße,49.1044794,11.9649936,,
de:09375:977:0:2,,Stetten Kieferstraße,49.104497,11.9648948,,
de:09375:979:0:1,,Alteglofsheim A.-Kolping-Str.,48.9265816,12.1989059,,
de:09375:979:0:2,,Alteglofsheim A.-Kolping-Str.,48.9259618,12.198879,,
de:09375:98:0:1,,Carolinenhütte,49.1852376,11.9212367,,
de:09375:98:0:2,,Carolinenhütte,49.1850145,11.9207156,,
de:09375:980:0:1,,Niedergebraching Arglestraße,48.9589975,12.0661439,,
de:09375:980:0:2,,Niedergebraching Arglestraße,48.9591096,12.0661439,,
de:09375:982:0:1,,Graßlfing Weiherweg,48.9570215,12.0428596,,
de:09375:984:0:1,,Gonnersdorf Kapelle,49.0659609,12.1508281,,
de:09375:984:0:2,,Gonnersdorf Kapelle,49.0661433,12.1507472,,
de:09375:986:0:1,,Neutraubling Zwickauer Straße,48.9835934,12.1923123,,
de:09375:986:0:2,,Neutraubling Zwickauer Straße,48.9836464,12.192438,,
de:09375:987:0:1,,Ramspau Schule,49.1587323,12.1399944,,
de:09375:988,,Beratzhausen Rubenbergweg,49.0984391,11.8126573,,
de:09375:988:0:1,,Beratzhausen Rubenbergweg,49.0984862,11.8126753,,
de:09375:989,,Beratzhausen Am Sixenfelsen,49.0954275,11.8153253,,
de:09375:989:0:1,,Beratzhausen Am Sixenfelsen,49.0954158,11.8153702,,
de:09375:99:0:1,,Dallackenried,49.1530042,11.9161252,,
de:09375:99:0:2,,Dallackenried,49.1523168,11.9188741,,
de:09375:990,,Beratzhausen Oberpfalzstraße,49.095804,11.8235089,,
de:09375:990:0:1,,Beratzhausen Oberpfalzstraße,49.0958158,11.8235,,
de:09375:992:0:1,,Neutraubling Podersamer Straße,48.9784287,12.1873266,,
de:09375:992:0:2,,Neutraubling Podersamer Straße,48.97847,12.1872278,,
de:09375:993:0:1,,Neutraubling Südumgehung,48.9750856,12.1845868,,
de:09375:993:0:2,,Neutraubling Südumgehung,48.9750974,12.184479,,
de:09375:994:0:1,,Grabenhof,49.07899,12.3413428,,
de:09375:994:0:2,,Grabenhof,49.0788782,12.3413697,,
de:09375:995:0:1,,Gottesberg bei Altenthann,49.0969216,12.3181124,,
de:09375:995:0:2,,Gottesberg bei Altenthann,49.0968922,12.3179686,,
de:09375:996:0:2,,Dornau,49.1337528,11.9943236,,
de:09375:997:0:1,,Mötzing Bergfeldstraße,48.8917467,12.3700799,,
de:09375:997:0:2,,Mötzing Bergfeldstraße,48.8918116,12.370008,,
de:09375:999:0:1,,Regendorf Holzgartenweg,49.0980274,12.0999295,,
de:09376:10171:0:1,,Bömmerlschlag,49.2364813,12.0993726,,
de:09376:10171:0:2,,Bömmerlschlag,49.2359182,12.0997139,,
de:09376:1093:0:1,,Abzw. Loisnitz,49.1796594,11.9616339,,
de:09376:1093:0:2,,Abzw. Loisnitz,49.1798179,11.961598,,
de:09376:11009:0:1,,See,49.1880617,11.9830677,,
de:09376:11009:0:2,,See,49.1879972,11.9831396,,
de:09376:11010:0:1,,Mossendorf,49.1951302,12.0030193,,
de:09376:11010:0:2,,Mossendorf,49.1949658,12.0030822,,
de:09376:1125:0:1,,Burglengenfeld Friedhof,49.2082604,12.0339393,,
de:09376:1125:0:2,,Burglengenfeld Friedhof,49.2084599,12.0336249,,
de:09376:122:2:1,,Maxhütte-Haidhof Bhf,49.1980007,12.1072149,,
de:09376:122:2:2,,Maxhütte-Haidhof Bhf,49.1979713,12.1072328,,
de:09376:126:0:1,,M.-H. E-Gstettenbauer-Str.,49.2021389,12.0919345,,
de:09376:126:0:2,,M.-H. E-Gstettenbauer-Str.,49.2023384,12.0913057,,
de:09376:127:0:1,,Maxhütte-Haidhof Koppenlohe,49.2048564,12.083149,,
de:09376:127:0:2,,Maxhütte-Haidhof Koppenlohe,49.205144,12.0831041,,
de:09376:12764:0:1,,Abzw. Pingarten,49.3168428,12.3304822,,
de:09376:12764:0:2,,Abzw. Pingarten Bstg 2,49.3170829,12.3308055,,
de:09376:12765:0:1,,Abzw. Roßbergeröd,49.1816911,12.0743994,,
de:09376:12765:0:2,,Abzw. Roßbergeröd,49.1816148,12.0749564,,
de:09376:12768:0:1,,Windmais Unterführung,49.304005,12.3326201,,
de:09376:12768:0:2,,Windmais Unterführung,49.3039933,12.3331052,,
de:09376:12770:0:1,,Bodenwöhr Forststraße,49.2783193,12.3298174,,
de:09376:12770:0:2,,Bodenwöhr Forststraße,49.2785069,12.3299791,,
de:09376:12773:0:1,,Erzhäuser Gasthaus Pöll,49.3106703,12.3298623,,
de:09376:12773:0:2,,Erzhäuser Gasthaus Pöll,49.3109982,12.330024,,
de:09376:128:0:1,,Burglengenf. Gymnasium,49.2015402,12.0622183,,
de:09376:129:0:2,,Burglengenfeld Am Hirtberg,49.20218,12.0587597,,
de:09376:130:0:1,,Burglengenfeld El. Koller,49.2037412,12.0535585,,
de:09376:130:0:2,,Burglengenfeld El. Koller,49.2038175,12.0536124,,
de:09376:131:0:1,,Burglengenfeld Sparkasse,49.2037177,12.0448628,,
de:09376:131:0:2,,Burglengenfeld Sparkasse,49.2040053,12.0449796,,
de:09376:132:0:1,,Burglengenfeld Rathaus,49.2079904,12.0393202,,
de:09376:132:0:2,,Burglengenfeld Rathaus,49.208008,12.0396166,,
de:09376:134:0:1,,Saaß Kreisstraße,49.2309146,12.0211832,,
de:09376:134:0:2,,Saaß Kreisstraße Bstg 2,49.2305744,12.0214347,,
de:09376:135:0:1,,Pottenstetten Kirche,49.2399066,12.0184883,,
de:09376:135:0:2,,Pottenstetten Kirche,49.2401412,12.0187488,,
de:09376:137:0:1,,Mühlberg bei Burgl.,49.2415136,11.9881522,,
de:09376:137:0:2,,Mühlberg bei Burgl.,49.2417657,11.9883947,,
de:09376:142:0:1,,Münchshofen Ortsmitte,49.2399593,12.082062,,
de:09376:144:0:1,,Premberg Brücke,49.2303574,12.0696922,,
de:09376:144:0:2,,Premberg Brücke,49.2306448,12.0698539,,
de:09376:1531:0:1,,Neunburg v. W. Ost/Stadthalle,49.3479161,12.3913789,,
de:09376:1531:0:2,,Neunburg v. W. Ost/Stadthalle,49.3476644,12.391325,,
de:09376:154:0:1,,Loisnitz Glashütte,49.2437715,12.1290439,,
de:09376:155:0:1,,Loisnitz Autobahnunterf.,49.244616,12.1328708,,
de:09376:158:0:1,,Weiherdorf Buchtalstraße,49.2430794,12.1229803,,
de:09376:159:0:1,,Weiherdorf Ort,49.2451614,12.114626,,
de:09376:159:0:2,,Weiherdorf Ort,49.2454135,12.1147068,,
de:09376:16:0:1,,Maxhütte-Haidhof Einkaufszentrum,49.1932164,12.0987707,,
de:09376:16:0:2,,Maxhütte-Haidhof Einkaufszentrum,49.1931225,12.0996331,,
de:09376:165:0:1,,Goppeltshof,49.1573929,12.2790895,,
de:09376:165:0:2,,Goppeltshof,49.1574751,12.2791165,,
de:09376:170:0:1,,Teublitz Hugo-Geiger-Siedlung,49.2080256,12.0829424,,
de:09376:171:0:1,,Burglengenfeld Naabbrücke,49.209933,12.0406407,,
de:09376:171:0:2,,Burglengenfeld Naabbrücke,49.2094928,12.0402904,,
de:09376:172:0:1,,Wölland,49.2139176,12.0535854,,
de:09376:172:0:2,,Wölland,49.2140408,12.053307,,
de:09376:1720:30:1,,Bodenwöhr Nord/Bahnhof Bstg 1,49.2780556,12.325784,,
de:09376:1720:30:2,,Bodenwöhr Nord/Bahnhof Bstg 2,49.2781201,12.3258199,,
de:09376:173:0:1,,Saltendorf Hauptstraße,49.2193394,12.0684795,,
de:09376:173:0:2,,Saltendorf Hauptstraße,49.2192514,12.0694407,,
de:09376:174:0:1,,Teublitz Rathaus,49.2207652,12.085305,,
de:09376:174:0:2,,Teublitz Rathaus,49.2209119,12.0851882,,
de:09376:175:0:1,,Teublitz Nord,49.2267143,12.0919435,,
de:09376:175:0:2,,Teublitz Nord,49.2267261,12.0923927,,
de:09376:176:0:2,,Münchshofen Brücke,49.2325571,12.084227,,
de:09376:177:0:1,,Katzdorf Raiffeisenbank,49.2465453,12.1004775,,
de:09376:177:0:2,,Katzdorf Raiffeisenbank,49.2463811,12.1006751,,
de:09376:178:0:1,,Klardorf Abzw. Bahnhof,49.2695337,12.1051038,,
de:09376:178:0:2,,Klardorf Abzw. Bahnhof,49.269393,12.1056249,,
de:09376:179:0:1,,Zielheim Gasthof Weiß,49.2712921,12.0984383,,
de:09376:179:0:2,,Zielheim Gasthof Weiß,49.2709463,12.0984204,,
de:09376:180:0:1,,Zielheim Weidenweg,49.2745919,12.099166,,
de:09376:180:0:2,,Zielheim Weidenweg,49.2748615,12.0989953,,
de:09376:1812:0:1,,Mappach,49.2543442,12.3362044,,
de:09376:1812:0:2,,Mappach,49.2540745,12.3363482,,
de:09376:1844:0:1,,Burglengenfeld Naabtalpark,49.1951654,12.0407755,,
de:09376:186:0:1,,Dachelhofen Abzw.,49.3123335,12.0991031,,
de:09376:186:0:2,,Dachelhofen Abzw.,49.3121227,12.0988426,,
de:09376:187:0:1,,Schwandorf Einkaufszentrum,49.3250169,12.1085534,,
de:09376:187:0:2,,Schwandorf Einkaufszentrum,49.3249877,12.1086342,,
de:09376:188:0:1,,Schwand. Adenauer Brücke,49.3226398,12.1074484,,
de:09376:188:0:2,,Schwand. Adenauer Brücke,49.3221304,12.1070711,,
de:09376:189:0:1,,Schwandorf Sandstr./Gymnasium,49.3230028,12.1168807,,
de:09376:2000:0:1,,Burglengenfeld Am Kreuzberg,49.2007008,12.0337417,,
de:09376:2000:0:2,,Burglengenfeld Am Kreuzberg,49.2009415,12.03358,,
de:09376:2249:0:1,,Bruck Marktplatz,49.2500872,12.3080602,,
de:09376:2249:0:2,,Bruck Marktplatz,49.2496885,12.308195,,
de:09376:2250:0:1,,Bruck Friedhof,49.2439298,12.3043142,,
de:09376:2250:0:2,,Bruck Friedhof,49.2438008,12.3047634,,
de:09376:2251:0:1,,St. Hubertus,49.2260866,12.2924295,,
de:09376:2251:0:2,,St. Hubertus,49.2266322,12.2925193,,
de:09376:2252:0:1,,Abzw. Flugplatz,49.2202782,12.2909293,,
de:09376:2252:0:2,,Abzw. Flugplatz,49.2205892,12.2911,,
de:09376:2253:0:1,,Bergham Industriestraße,49.2049268,12.2830421,,
de:09376:2253:0:2,,Bergham Industriestraße,49.2048916,12.2830691,,
de:09376:2254:0:1,,Bergham Aumüller,49.2011117,12.2778049,,
de:09376:2254:0:2,,Bergham Aumüller,49.2010706,12.2780295,,
de:09376:2255:0:2,,Nittenau Marktplatz,49.197355,12.2715347,,
de:09376:2256:0:1,,Nittenau Am Steinhügel,49.1983294,12.2592996,,
de:09376:2256:0:2,,Nittenau Am Steinhügel,49.1983118,12.2597129,,
de:09376:2257:0:1,,Obermainsbach,49.1999377,12.2531731,,
de:09376:2257:0:2,,Obermainsbach,49.1996853,12.253766,,
de:09376:2258:0:1,,Untermainsbach,49.2021976,12.2323143,,
de:09376:2258:0:2,,Untermainsbach,49.202491,12.2317124,,
de:09376:2259:0:1,,Hof am Regen,49.2061887,12.2188036,,
de:09376:2259:0:2,,Hof am Regen,49.205725,12.2191719,,
de:09376:2260:0:1,,Stefling,49.2137181,12.2064518,,
de:09376:2260:0:2,,Stefling,49.2134775,12.2063709,,
de:09376:2261:0:1,,Stefling Überfuhr,49.2128789,12.197271,,
de:09376:2261:0:2,,Stefling Überfuhr,49.2128789,12.1976662,,
de:09376:268:0:1,,Teublitz Schule,49.2206655,12.0813614,,
de:09376:4:0:1,,Neunburg v. W. Amberger Straße,49.3469973,12.3777246,,
de:09376:45:0:1,,Burglengenfeld TV-Turnh.,49.2052731,12.0418984,,
de:09376:45:0:2,,Burglengenfeld TV-Turnh.,49.2053963,12.0421948,,
de:09376:5:0:1,,Abzw. Berglarn,49.1685303,12.271921,,
de:09376:5:0:2,,Abzw. Berglarn,49.1685714,12.2722084,,
de:09376:54:0:1,,Ponholz Siedlung,49.1662748,12.0998128,,
de:09376:54:0:2,,Ponholz Siedlung,49.1668328,12.1002889,,
de:09376:604:0:1,,Abzw. Greinhof,49.1902106,12.0156226,,
de:09376:604:0:2,,Abzw. Greinhof,49.1907037,12.0155059,,
de:09376:606:0:1,,Abzw. Pissau,49.3289806,12.3347312,,
de:09376:606:0:2,,Abzw. Pissau,49.3290508,12.3349737,,
de:09376:607:0:1,,Abzw. Roding,49.1896704,12.0614906,,
de:09376:607:0:2,,Abzw. Roding,49.1893299,12.0619488,,
de:09376:610:0:1,,Saltendorf Getränke Hausler,49.2275826,12.0770315,,
de:09376:615:0:1,,Am Deglhof,49.1888191,12.097567,,
de:09376:633:0:1,,Burglengenfeld Abzw. Krankenhaus,49.2017339,12.0361312,,
de:09376:633:0:2,,Burglengenfeld Abzw. Krankenhaus,49.2019745,12.0358976,,
de:09376:637:0:1,,Burglengenfeld Realschule,49.2059011,12.0392214,,
de:09376:704:0:1,,Pechmühle,49.2901444,12.3308684,,
de:09376:704:0:2,,Pechmühle,49.290619,12.3311469,,
de:09376:707:0:1,,Pirkensee,49.1625625,12.0776333,,
de:09376:707:0:2,,Pirkensee,49.1625683,12.0775525,,
de:09376:709:0:1,,Ponholz Gasthof Söllner,49.1727297,12.0929496,,
de:09376:709:0:2,,Ponholz Gasthof Söllner,49.1729352,12.0932551,,
de:09376:717:0:1,,Roding,49.1939385,12.0689556,,
de:09376:719:0:1,,Roßbergeröd,49.1821961,12.0778939,,
de:09376:719:0:2,,Roßbergeröd,49.1823957,12.077813,,
de:09376:737:0:1,,Verau,49.2056135,12.102867,,
de:09376:7410:30:G,,Schwandorf Bahnhof,49.3269432,12.1035767,,
de:09376:744:0:1,,Winkerling,49.1843804,12.0844695,,
de:09376:744:0:2,,Winkerling,49.184216,12.0849187,,
de:09376:747:0:1,,Münchsh. Abzw. Uferstr.,49.2347157,12.0820171,,
de:09376:760:0:1,,Abzw. Penting,49.3367488,12.3510446,,
de:09376:760:0:2,,Abzw. Penting,49.3366259,12.3514848,,
de:09376:80001:0:1,,Schwand. Wendelinplatz,49.3273413,12.1086252,,
de:09376:80002:0:1,,Bodenwöhr Kriegerdenkmal,49.2703543,12.3046646,,
de:09376:80002:0:2,,Bodenwöhr Kriegerdenkmal,49.2701199,12.304449,,
de:09376:80003:0:1,,Bodenwöhr Weihersiedlung,49.272482,12.3155881,,
de:09376:80003:0:2,,Bodenwöhr Weihersiedlung,49.272523,12.3173218,,
de:09376:80004:0:1,,Bodenwöhr Apotheke,49.2674997,12.3001011,,
de:09376:80004:0:2,,Bodenwöhr Apotheke,49.2676052,12.3007749,,
de:09376:80005:0:1,,Mögendorf,49.263707,12.2954029,,
de:09376:80005:0:2,,Mögendorf,49.263877,12.2955557,,
de:09376:80006:0:1,,Abzw. Schöngras,49.2565018,12.2963911,,
de:09376:80006:0:2,,Abzw. Schöngras,49.2563318,12.2967235,,
de:09376:80007:0:1,,Bruck Fischbacher Straße,49.2509668,12.3059312,,
de:09376:80007:0:2,,Bruck Fischbacher Straße,49.251172,12.3063085,,
de:09376:80008:0:1,,Nittenau Bodensteiner Str./Gym,49.1951419,12.2786853,,
de:09376:80008:0:2,,Nittenau Bodensteiner Str./Gym,49.1950891,12.2788829,,
de:09376:80009:0:1,,Nittenau Jahnweg / Gym,49.1970673,12.2779846,,
de:09376:80010:0:1,,Bodenwöhr Gemeindeverwaltung,49.2703543,12.2986189,,
de:09376:80010:0:2,,Bodenwöhr Gemeindeverwaltung,49.2706298,12.2986908,,
de:09376:80013:0:1,,Burglengenfeld Galgenberg,49.2015754,12.0518248,,
de:09376:80013:0:2,,Burglengenfeld Galgenberg,49.2017984,12.0520763,,
de:09376:80053:0:1,,Forsting,49.1897409,12.3255145,,
de:09376:80053:0:2,,Forsting,49.1895354,12.3253528,,
de:09376:80126:0:1,,Fürsthof,49.1733757,12.1242739,,
de:09376:80126:0:2,,Fürsthof,49.1734638,12.1243727,,
de:09376:80175:0:1,,Ibenthann,49.1922242,12.1104398,,
de:09376:80175:0:2,,Ibenthann,49.1926587,12.1104937,,
de:09376:80269:0:2,,Neunburg v. W. Ev. Kirche Bstg 2,49.3467749,12.3779851,,
de:09376:80272:0:1,,"Neunburg v. W., Berufsschule",49.346336,12.3732959,,
de:09376:80392:0:1,,Untersdorf,49.2326158,12.0048069,,
de:09376:80392:0:2,,Untersdorf,49.2328856,12.00478,,
de:09376:80442:0:1,,Leonberg Am Schießlhang,49.1892947,12.111931,,
de:09376:80442:0:2,,Leonberg Am Schießlhang,49.1893006,12.1122993,,
de:09376:80455:0:1,,Leonberg Schlossplatz,49.1820434,12.113027,,
de:09376:80455:0:2,,Leonberg Schlossplatz,49.1818555,12.1131617,,
de:09376:80511:0:1,,Muckenbach,49.2000317,12.3039998,,
de:09376:80512:0:1,,Neunburg v. W. Gewerbepark,49.3430058,12.3557158,,
de:09376:80512:0:2,,Neunburg v. W. Gewerbepark,49.3427951,12.3562818,,
de:09376:80525:0:1,,Maxhütte-Haidhof Rathaus,49.1992216,12.0933898,,
de:09376:80525:0:2,,Maxhütte-Haidhof Rathaus,49.1992334,12.0936234,,
de:09376:80535:0:1,,Schwandorf Rgbg. Str./BRK,49.3171063,12.1024718,,
de:09376:80535:0:2,,Schwandorf Rgbg. Str./BRK,49.3170185,12.1027682,,
de:09376:80545:0:1,,"Burglengenfeld, Maxhütter Str.",49.2041579,12.0463091,,
de:09376:80546:0:1,,"Burglengenfeld, Pfälzer Str.",49.2033304,12.0486088,,
de:09376:80547:0:1,,Nittenau Friedhof,49.1968267,12.2667377,,
de:09376:80547:0:2,,Nittenau Friedhof,49.1967621,12.2667377,,
de:09376:80729:0:1,,Treidling,49.1918192,12.3212654,,
de:09376:80729:0:2,,Treidling,49.1917194,12.3211217,,
de:09376:80730:0:1,,Bergham Forsthaus,49.1997969,12.286294,,
de:09376:80731:0:1,,Ponholz Gasthof Alte Post,49.1638665,12.0979712,,
de:09376:80731:0:2,,Ponholz Gasthof Alte Post,49.1639311,12.0981868,,
de:09376:80732:0:1,,Ponholz Industriepark,49.1610058,12.1025796,,
de:09376:80732:0:2,,Ponholz Industriepark,49.1611937,12.1027862,,
de:09376:80734:0:1,,Roßbach Abzweigung,49.1766644,12.1068915,,
de:09376:80734:0:2,,Roßbach Abzweigung,49.1769933,12.1072418,,
de:09376:80736:0:1,,Wechsel,49.1994916,12.290561,,
de:09376:81741:0:1,,Maxhütte-Haidhof Ziegelhütte,49.1560475,12.0733484,,
de:09376:872:0:1,,Leonberg Förderschule,49.1853257,12.1193421,,
de:09376:886:0:1,,Strieglhof,49.1878974,12.094351,,
de:09376:886:0:2,,Strieglhof,49.1878797,12.0939917,,
de:09376:906:0:1,,Almenhof,49.1699517,12.0890959,,
de:09376:921:0:1,,Münchshofen Brunnenstraße Bstg 1,49.2382585,12.0791695,,
de:09376:930:0:1,,Maxhütte-H. Eisenbahnbr.,49.1950656,12.1092271,,
de:09376:930:0:2,,Maxhütte-H. Eisenbahnbr.,49.1951478,12.1092001,,
de:09376:993:0:1,,Neunburg v. W. Schulzentrum,49.3480858,12.3718945,,
gen:9263:33001::1,,Straubing Theresientor,48.8809902,12.5650413,,
gen:9263:33001::2,,Straubing Theresientor,48.8809193,12.5645921,,
gen:9263:33002::1,,Straubing Dr.-Josef-Keim-Str.,48.8803285,12.5570732,,
gen:9263:33002::2,,Straubing Dr.-Josef-Keim-Str.,48.8803285,12.5571181,,
gen:9263:33003::1,,Straubing Gh. Frauenbrünnl,48.8804821,12.5499046,,
gen:9263:33003::2,,Straubing Gh. Frauenbrünnl,48.8804349,12.5499226,,
gen:9263:33004::1,,Straubing Tiergarten,48.8807952,12.543868,,
gen:9263:33004::2,,Straubing Tiergarten,48.8810847,12.5420444,,
gen:9263:33018::1,,Straubing Stadtgraben/kfm. BS,48.8804053,12.5722547,,
gen:9263:33067::1,,Unterzeitldorn Abzw.,48.9134475,12.5593909,,
gen:9263:33067::2,,Unterzeitldorn Abzw.,48.9134475,12.5593909,,
gen:9263:33068::2,,Unterzeitldorn Ort,48.9145751,12.5634692,,
gen:9263:33069::1,,Sossau,48.9066047,12.5620768,,
gen:9263:33069::2,,Sossau,48.9066047,12.5620768,,
gen:9263:33070::1,,Hornstorf,48.8994656,12.5825315,,
gen:9263:33070::2,,Hornstorf,48.899064,12.5819565,,
gen:9263:33071::1,,Straubing Chamer Straße,48.889077,12.5753898,,
gen:9263:33071::2,,Straubing Chamer Straße,48.889077,12.5754078,,
gen:9263:33072::2,,Straubing Turmair-Gymnasium,48.8870569,12.5872207,,
gen:9263:33073::1,,Straubing Ursulinengymnasium,48.8842274,12.5741592,,
gen:9263:33073::2,,Straubing Ursulinengymnasium,48.8839793,12.5740064,,
gen:9263:33074::1,,Straubing Dr.-Otto-Höchtl-Str.,48.8738297,12.5677452,,
gen:9263:33074::2,,Straubing Dr.-Otto-Höchtl-Str.,48.872648,12.5679877,,
gen:9263:33075::1,,Straubing Ludwigsgymnasium,48.8678205,12.5775638,,
gen:9263:33075::2,,Straubing Ludwigsgymnasium,48.8678087,12.5774739,,
gen:9278:33006::1,,Rinkam,48.8870273,12.5040277,,
gen:9278:33006::2,,Rinkam,48.8869742,12.5040277,,
gen:9278:33007::1,,Atting Attostraße,48.8920656,12.4916219,,
gen:9278:33007::2,,Atting Attostraße,48.8919121,12.4915591,,
gen:9278:33008::1,,Atting Denkmal,48.8956151,12.4874897,,
gen:9278:33008::2,,Atting Denkmal,48.8955915,12.48731,,
gen:9278:33009::1,,Rain Ost,48.9060969,12.4782281,,
gen:9278:33009::2,,Rain Ost,48.906026,12.4783359,,
gen:9278:33010::1,,Rain Kindergarten,48.9050577,12.4699546,,
gen:9278:33010::2,,Rain Kindergarten,48.9054178,12.4708349,,
gen:9278:33011::1,,Rain Feuerwehrhaus,48.9048864,12.4660828,,
gen:9278:33011::2,,Rain Feuerwehrhaus,48.9045794,12.4657505,,
gen:9278:33012::1,,Rain Dürnharter Str.,48.9029024,12.4590401,,
gen:9278:33012::2,,Rain Dürnharter Str.,48.9027311,12.4590311,,
gen:9278:33013::2,,Wiesendorf Schulbushaltestelle,48.8852434,12.4625525,,
gen:9278:33052::1,,"Kirchroth, Stadldorf",48.9761528,12.4570009,,
gen:9278:33052::2,,"Kirchroth, Stadldorf",48.9761528,12.4570009,,
gen:9278:33053::1,,"Kirchroth, Niederachdorf Brücke",48.9685755,12.4685083,,
gen:9278:33053::2,,"Kirchroth, Niederachdorf Brücke",48.9685755,12.4685083,,
gen:9278:33055::1,,Pillnach Gh. Eiglsperger,48.975799,12.4921789,,
gen:9278:33055::2,,Pillnach Gh. Eiglsperger,48.975799,12.4921789,,
gen:9278:33056::1,,Pondorf Kirche,48.9641465,12.4880826,,
gen:9278:33056::2,,Pondorf Kirche,48.9641465,12.4880826,,
gen:9278:33057::1,,Pondorf Raiffeisenkasse,48.964636,12.4882712,,
gen:9278:33057::2,,Pondorf Raiffeisenkasse,48.964636,12.4882712,,
gen:9278:33058::1,,Oberzeitldorn Feuerwehrhaus,48.9613509,12.5020604,,
gen:9278:33058::2,,Oberzeitldorn Feuerwehrhaus,48.9613509,12.5020604,,
gen:9278:33059::1,,Oberzeitldorn Sonnenweg,48.959782,12.5068035,,
gen:9278:33059::2,,Oberzeitldorn Sonnenweg,48.959782,12.5068035,,
gen:9278:33060::1,,Weiher,48.9581305,12.514529,,
gen:9278:33060::2,,Weiher,48.9582543,12.514538,,
gen:9278:33061::1,,Kirchroth West,48.9554643,12.5346423,,
gen:9278:33061::2,,Kirchroth West,48.9554643,12.5346423,,
gen:9278:33062::1,,Kirchroth Post,48.9554643,12.5346423,,
gen:9278:33062::2,,Kirchroth Post,48.9554643,12.5346423,,
gen:9278:33063::1,,Kirchroth Süd,48.9504206,12.5441734,,
gen:9278:33063::2,,Kirchroth Süd,48.9504206,12.5441734,,
gen:9278:33065::1,,Kößnach Siedlung,48.9336105,12.5504077,,
gen:9278:33065::2,,Kößnach Siedlung,48.9336105,12.5504077,,
gen:9278:33066::1,,Kößnach Ortsmitte,48.9295975,12.5515216,,
gen:9278:33066::2,,Kößnach Ortsmitte,48.9295975,12.5515216,,
gen:9375:33050::1,,Hofdorf (Wörth) Fa. Wolf,48.9895238,12.4517188,,
gen:9375:33050::2,,Hofdorf (Wörth) Fa. Wolf,48.9895238,12.4517188,,
gen:9375:33054::1,,Hof bei Zinzendorf,48.9824968,12.4836719,,
gen:9375:33054::2,,Hof bei Zinzendorf,48.9824673,12.4837707,,
